mincan_id,company1,company2,company3,company4,company5,company6,namemine,town,province,latitude,longitude,open1,close1,open2,close2,open3,close3,commodityall,information,source1,source2,source3,link1,link2,link3,mine_status,geometry
QC-MINCAN-a8c87336,Quebec Copper Corp. Ltd,,,,,,,,Quebec,45.263786,-72.331764,1866,1958,,,,,"Copper, Gold, Silver",,0,1,0,,,,Inactive,POINT (-72.331764 45.263786)
BC-MINCAN-16652987,Noland Mines Ltd.,,,,,,Spruce Creek,Atlin,British Columbia,59.38272,-133.27033,1909,1950,1955,1989,,,Gold,,0,1,1,https://www.mindat.org/feature-6088912.html,https://www.mindat.org/loc-257276.html,https://mrdata.usgs.gov/ardf/show-ardf.php?ardf_num=OP026,Inactive,POINT (-133.27033 59.38272)
BC-MINCAN-d675705f,Falconbridge Nickel Mines Ltd. ,,,,,,Wesfrob (Tasu),Moresby Island ,British Columbia,52.75834,-132.05,1914,1983,,,,,"Iron, Copper",,0,1,1,https://www.mindat.org/loc-26169.html,,,Inactive,POINT (-132.05 52.75834)
NS-MINCAN-ca20ef49,Greenwood Coal Co. Ltd. ,,,,,,,,Nova Scotia,45.5502192021,-62.5667798111,1918,1966,,,,,Coal,The currently entered coordinates are for the museum (see link attached),0,1,1,https://www.mindat.org/loc-290980.html,,,Inactive,POINT (-62.5667798111 45.5502192021)
QC-MINCAN-d1e8b6b1,Noranda Mines Ltd,Normetal Mining Corporation Ltd.,Falconbridge Ltd.,Xstrata,,,Horne,Noranda ,Quebec,48.25427,-79.01128,1927,1976,,,,,"Copper, Gold, Silver, Selenium, Tellurium, Pyrite ","Alternative names: Horne Mine (1975) The mine is named after prospector Edmund Horne who first staked the property in 1920. The property was optioned in 1922 to a syndicate that discovered a major copper-gold deposit and grew to become Noranda Mines Limited, later Noranda Inc., one of the world's premier mining and metals companies. The deposit in Precambrian Keewatin-type volcanic rocks is a classic example of a volcanogenic massive sulfide (VMS) deposit. The Horne mine exploited two major ore bodies called the Upper H and the Lower H. The ore averaged 2.22% Cu, 6.1 g/t Au and 13 g/t Ag. The mine closed in 1976,having produced 53.7 million tons of ore and recovering 260t of gold (11.6 million ounces) and 1.13Mt of copper. The Horne copper smelter built on the mine site in 1927 is still in operation. Mineral rights are currently (2015) owned by Falco Resources Ltd which is examining the feasibility of mining the Horne 5 copper-gold deposit below the old Horne mine workings.",0,1,1,https://www.mindat.org/loc-609.html,,,Inactive,POINT (-79.01128 48.25427)
MB-MINCAN-aa9e8f78,Domtar Construction Materials Ltd.,"Gypsum, Lime, and Alabastine, Canada Ltd.",,,,,Amaranth,Amaranth (Gypsumville),Manitoba,50.57638888888889,-98.73333333333332,1930,1964,,,,,Gypsum,,0,1,1,https://mrsearch.gov.mb.ca/dbtw-wpd/exec/dbtwpub.dll?AC=GET_RECORD&XC=/dbtw-wpd/exec/dbtwpub.dll&BU=https%3A%2F%2Fmrsearch.gov.mb.ca%2FItm-cat%2Fweb%2Fminsearch.html&GI=&TN=mineralinventorycard&SN=AUTO12810&SE=243&RN=0&MR=0&TR=0&TX=1000&ES=0&XP=&RF=Web%3A+Brief&EF=Basic+Record+Form&DF=Viewing+PrintingWeb&RL=1&EL=1&DL=1&NP=3&ID=&MF=&DT=&ST=0&IR=802&NR=0&NB=0&SV=0&SS=1&BG=&FG=&QS=minsearch,,,Inactive,POINT (-98.73333333333332 50.57638888888889)
ON-MINCAN-6beb5f81,General Chemical Canada Ltd.,,,,,,,Amherstburg,Ontario,42.0953894254532,-83.0876189665771,1936,2001,,,,,Salt,,0,1,1,http://wikimapia.org/17674812/former-General-Chemical,,,Inactive,POINT (-83.0876189665771 42.0953894254532)
ON-MINCAN-ccf2bf99,Dominion Magnesium Ltd. ,Chromasco Corporation Ltd.,Timminco Limited,,,,Haley,Haley ,Ontario,45.59888,-76.75171,1942,open,,,,,Magnesium,,0,1,1,http://www.geologyontario.mndm.gov.on.ca/mndmfiles/mdi/data/records/MDI31F10SE00002.html,https://www.mindat.org/loc-14742.html,,Active,POINT (-76.75171 45.59888)
BC-MINCAN-348cf0a2,Canadian Exploration Ltd.,,,,,,Jersey Emerald,Salmo ,British Columbia,49.09861,-117.22111,1944,1970,,,,,"Lead, Zinc, Silver, Cadmium, Tungsten, Molybdenum, Gold, Bismuth",Bismuth,0,1,1,https://minfile.gov.bc.ca/summary.aspx?minfilno=082FSW009,,,Inactive,POINT (-117.22111 49.09861)
ON-MINCAN-d7542f2e,Kidd Copper Mines Ltd.,Denison Copper Mines,,,,,"Gersdorffite, AER, and  Kidd Copper or  Howland Pit",Worthington ,Ontario,46.39465,-81.43186,1946,1958,1965,1968,1965,1968,Nickel,The mine was also in operation from 1928 to 1939.,0,1,1,http://www.geologyontario.mndm.gov.on.ca/mndmfiles/mdi/data/records/MDI41I06NW00047.html,,,Inactive,POINT (-81.43186 46.39465)
YT-MINCAN-d08b4ec8,Mackeno Mines Ltd.,Galkeno Mines Ltd.,,,,,,Galkeno Mine (MacLeod Mine),Yukon,63.92692,-135.36625,1946,1966,1978,1980,,,"Silver, Lead, Zinc, Cadmium","In 1946, Keno Hill Mines Ltd produced 50 tonnes of ore from the Galkeno mine. In 1948, Yukon Galena Mines Limited produced 36 tonnes. From 1953 to 1955, Makeno Mines Ltd produced 57,856 tonnes of ore. From 1956 to 1957, Galkeno Mines Ltd produced 47,015 tonnes and from 1959 to 1966, and again from 1978 to 1980, United Keno Hill Mines Ltd produced  26,382 tonnes of ore. Total production from the mine was 167,063 tonnes at a grade of 932.57 g/t silver (27.2 oz/t), 5.22% lead and 2.69% zinc to produce 141,338,613 grams of silver (4,544,142 oz), 7,909,476 kg of lead, 8,999,204 kg of zinc and 39,146 kg of cadmium. ////// closed between 2019 and 2020",0,1,1,https://www.mindat.org/loc-11268.html,https://data.geology.gov.yk.ca/Occurrence/16994#InfoTab,,Inactive,POINT (-135.36625 63.92692)
QC-MINCAN-ce6cfa6b,Oreo Resources Inc. ,Donalda Mines Ltd. ,Metall Mining Corporation and Thunderwood Resources Inc.,Kerralda Mines Ltd.,,,Donalda (Keralda),Rouyn-Noranda,Quebec,48.262661,-78.98609,1948,1956,1970,1971,1994,1995,"Gold, Copper, Zinc, Lead, Silver",,0,1,1,https://www.mindat.org/loc-256823.html,https://www.globexmining.com/property.php?id=26,,Inactive,POINT (-78.98609 48.262661)
NB-MINCAN-de7ea077,Avon Coal Co. Ltd.,,,,,,,Minto ,New Brunswick,46.128611,-66.081944,1950,1971,,,,,Coal,,0,1,1,https://www1.gnb.ca/0078/GeoscienceDatabase/IndustrialMinerals/qryIndMinSummary-e.asp?Num=568,,,Inactive,POINT (-66.081944 46.128611)
NB-MINCAN-63ccd128,Noranda Inc.,Brunswick Mining and Smelting Corporation Limited and Noranda Minerals Inc,,,,,Stratmat (Halfmile),,New Brunswick,47.30527778,-66.32,1951,open,,,,,"Zinc, Lead, Copper, Gold, Silver",indigenous participation,0,1,1,https://www.nrcan.gc.ca/sites/www.nrcan.gc.ca/files/mineralsmetals/files/pdf/rmd-rrm/Halfmile%20Mine%20Development%20Project.pdf,,,Active,POINT (-66.32 47.30527778)
BC-MINCAN-3300fc60,Mountain Minerals Ltd. ,Mountain Mineral Co. Ltd.,Highwood Resources Ltd.,Purcell Development Co. Ltd.,,,Mountainrals Division,Brisco ,British Columbia,50.829721,-116.33055,1952,1977,,,,,Barite,"During the Second World War, barite was mined for use as ship ballast. After the war another use was found as an addition to mud for oil drilling. It was also used as a base for paint, and for the detection of ulcers under x-ray. In 1959, 9,320 tons of barite was crushed near the quarry and shipped for processing at Lethbridge. It was hard to quarry because of the way the faults ran, as well as the swelling and pinching of the barite ore body. As a result, the size of the quarry was restricted.",0,1,1,https://windermeredistricthistoricalsociety.files.wordpress.com/2018/01/mines-in-the-windermere-valley.pdf,,,Inactive,POINT (-116.33055 50.829721)
BC-MINCAN-e99e3800,Cassiar Asbestos Corporation Ltd. ,Cassiar Mining Corporation,Minroc Mines Inc.,Brinco Mining Ltd.,,,,Cassiar ,British Columbia,59.324999,-129.81805,1952,1998,,,,,"Asbestos, Chrysotile, Jade/Nephrite, Gemstones, Magnesium",legal case,0,1,1,https://www.brownlawyers.ca/canadian-asbestos-mines.html,,,Inactive,POINT (-129.81805 59.324999)
AB-MINCAN-d88f2e8b,Century Coals Ltd.,,,,,,,,Alberta,51.2783727017,-112.529346787999,1954,1965,,,,,Coal,"""Site Two is located approximately four miles to the south / south-east of the lower preparation plant. At the second site is the shaft and slope openings of Century Coals Ltd. begun in 1954. Structures include buildings (a machine shop apparently still in use) and the shaft hoist structure. A small amount of coal does presently find its way to local markets."" from https://hermis.alberta.ca/ARHP/Details.aspx?DeptID=2&ObjectID=HS%2033696",0,1,1,,,,Inactive,POINT (-112.529346787999 51.2783727017)
QC-MINCAN-d89f449a,Marban Gold Mines Ltd.,Maudore Minerals Ltd.,Abcourt Mines Inc.,North American Palladium Ltd.,,,,Norrie ,Quebec,48.137067,-77.97919,1961,1974,,,,,"Gold, Silver","Marban (formerly Marbenor) gold mines, northwestern Quebec",0,1,1,https://depositum.uqat.ca/id/eprint/424/1/cahierhist6.pdf,,,Inactive,POINT (-77.97919 48.137067)
ON-MINCAN-9abb16ea,Steep Rock Iron Mines Ltd.,OMYA (Canada) Inc.,,,,,Calcite Division,Perth,Ontario,45.149689,-76.498756,1962,open,,,,,Calcium Carbonate,,0,1,1,http://www.geologyontario.mndm.gov.on.ca/mndmfiles/mdi/data/records/MDI31F01NW00006.html,,,Active,POINT (-76.498756 45.149689)
QC-MINCAN-aea232ca,Cupra Mines Ltd.,Sullivan Mining Group Ltd,,,,,Cupra (Mine Cupra-d'Estrie),Stratford ,Quebec,45.771559,-71.309266,1965,1977,,,,,"Copper, Zinc, Silver, Gold, Lead, Cadmium, Bismuth",,0,1,1,https://www.mindat.org/loc-131315.html,,,Inactive,POINT (-71.309266 45.771559)
YT-MINCAN-d7129b61,New Imperial Mines Ltd. ,Whitehorse Copper Mines Ltd.,,,,,,Whitehorse ,Yukon,60.736734030314,-135.083405076298,1967,1982,,,,,Copper,The mine was also in operation from 1900 to 1920. //// 25 to 200 workers - unclear unclear see p.65 many fluctuation in employment Source 	ReSDA Atlas Yukon Mine summary cover.pdf (gov.yk.ca) https://emrlibrary.gov.yk.ca/ebooks/Northern%20Research%20Institute/ReSDA-Atlas-Yukon-Mine-summaries.pdf,0,1,1,https://www.mindat.org/loc-108063.html,,,Inactive,POINT (-135.083405076298 60.736734030314)
QC-MINCAN-5d41ed28,Madeleine Mines Ltd,,,,,,Madeleine,Ste. Anne des Monts ,Quebec,49.0,-66.01667,1969,1976,1979,1979,,,Copper,,0,1,1,https://www.mindat.org/loc-195494.html,,,Inactive,POINT (-66.01667 49)
MB-MINCAN-48d72465,Sherritt Gordon Mines Ltd. ,Hudson Bay Mining and Smelting Co. Limited,,,,,Ruttan,Leaf Rapids,Manitoba,56.475,-99.63722222222223,1973,2001,,,,,"Copper, Zinc",,0,1,1,https://www.manitoba.ca/iem/min-ed/mbhistory/mininv/595.htm,,,Inactive,POINT (-99.63722222222223 56.475)
QC-MINCAN-06b1f129,Marietta Resources International Ltd.,Lacana Mines Inc.,Zemex Corporation,Suzorite Mica products of Boucherville,,,Parent Mica Deposit,Suzor,Quebec,47.9384118261258,-74.6346024474106,1976,open,,,,,Mica,"Changed name in Lacana Mines Inc. ""In late 1985, Lacana Mines Inc. of Toronto, Ontario, (now International Corona) purchased the Marietta Suzorite operation. In September 1994, Zemex Corp. of Toronto purchased the company from Whittaker Clark and Daniels of New Jersey. Zemex also controls the Feldspar Corporation in Spruce Pine, North Carolina. "" see p.13 ///////// Suzorite Mica products of Boucherville, Quebec, has maintained profits in the face of this growing competition. Seen as a strong cash generator, the company was purchased by Zemex Corporation from Lacana Inc. in 1993.18 Both of its previous owners (Marietta Resources and Lacana Petroleum) invested heavily in Suzorite's future. In 1985 CDN$14 million dollars was spent on facilities that ultimately produced delaminated HAR (high aspect ratio)mica grades for the plastics industry.19 With capital, proper technical expertise, and aggressive marketing its profitability can be maintained. With mica's use changing from that of a bulk filler to a functional filler, it is no longer subject to falling resin prices. Also, mica becomes a necessity rather than a mineral that can be substituted with cheaper alternatives. Lastly, mica is a necessity in most polypropylene applications.  Polypropylene is poised to dominate the resin market. In October of 1994, ""Modem Plastics  International"" reported that polypropylene is set to capture a large share of the resin market due to its low price. But perhaps the best attribute of polypropylene is its diversity of  applications (Roskill notes that in Europe polypropylene has the fastest growing resin market share). ",0,1,1,https://cmscontent.nrs.gov.bc.ca/geoscience/PublicationCatalogue/OpenFile/BCGS_OF1995-26.pdf,https://gq.mines.gouv.qc.ca/documents/examine/GM27489/GM27489.pdf,,Active,POINT (-74.6346024474106 47.9384118261258)
QC-MINCAN-227d3d18,Baskatong Quartz Products Ltd.,Sitec Quartz Inc.,SKW Canada Inc.,Hogan Holdings Inc.,,,Charlevoix,Charlevoix (Saint-Urbain),Quebec,47.7499003009564,-70.6967107601304,1977,open,,,,,Silica,,0,1,1,https://gq.mines.gouv.qc.ca/documents/examine/ET9904/ET9904PLAN.pdf,https://www.globenewswire.com/news-release/2017/01/05/1119833/0/en/MacDonald-Mines-Begins-Exploration-at-its-Charlevoix-Silica-Property.html,,Active,POINT (-70.6967107601304 47.7499003009564)
QC-MINCAN-2d42f581,Long Lac Minerals Ltd. ,Lac Minerals Ltd. ,,,,,Bousquet (No. 1 and 2),Cadillac ,Quebec,48.253881,-78.452902,1978,2002,,,,,"Gold, Silver, Copper, Zinc",,0,1,1,https://www.mindat.org/loc-206837.html,http://portergeo.com.au/database/mineinfo.asp?mineid=mn085,,Inactive,POINT (-78.452902 48.253881)
AB-MINCAN-1f02a2f3,Luscar Stereo Ltd.,Luscar Sterco Ltd.,,Westmoreland Coal Company,,,Coal Valley,Edson (Coal Valley),Alberta,53.0468889202999,-116.70986872,1978,open,,,,,Coal,brief suspension of activities between 2020 and 2021,0,1,1,https://www.miningnorth.com/_rsc/site-content/library/NWT_Mines_History_RSilke2009.pdf,,,Active,POINT (-116.70986872 53.0468889202999)
QC-MINCAN-11bf4a1e,Long Lac Minerals Ltd. ,IAMGOLD Corporation,Quebec Mining Exploration Company (SOQUEM),Silverstack Mines Ltd.,,,Doyon or Silverstack,Cadillac ,Quebec,48.2557,-78.519197,1980,2009,,,,,Gold,"Even more companies : Barrick Gold, Cambior, ...The Doyon site was the subject of more intense prospecting in the 1960’s by the prospector Arthur Doyon. In 1972, it became the co-property of Silverstack Mines Company Ltd and of SOQUEM, which carried out exploration works between 1972 and 1975. In 1977, Long Lac Mineral Exploration Ltd (Lac Minerals Ltd) took over Silverstack Mines Ltd, and a drilling survey of 120 holes brought the Doyon deposit into production in February 1980. In 1983, a surface exploration campaign led to the discovery of Doyon West Zones.
The Cadillac-Bousquet region in northwestern Québec has been a productive mining centre for over 100 years and still holds great potential. In 1972, it became the co-property of Silverstack Mines Company Ltd. and the Québec government controlled Soquem Inc., which carried out exploration between 1972 and 1975. In 1975 Long Lac Mineral Exploration Ltd (Lac Minerals Ltd), took over Silverstack’s interest. Commercial open pit mining began at the Doyon Mine in 1980, and while underground mining commenced in 1985, the full transition to a wholly underground operation was completed in early 1989. The Doyon Gold Mine has been a significant producer of gold for the past 30 years having produced over 5 million ounces of gold.
 
In 1986, Cambior Inc. acquired an initial 50% interest in the Doyon Gold Mine and 100% of the Mouska property in connection with the privatisation of most of Soquem’s assets. Cambior became the sole owner of the Doyon Gold Mine by acquiring the remaining 50% interest from Barrick Gold in 1998.
 
Underground exploration at Mouska began in October 1987, pre-production development followed in May 1990 and commercial production commenced in July 1991.  IAMGOLD acquired the Doyon Division including both the Doyon Gold Mine and Mouska Gold Mine through its merger with Cambior in November 2006.
 
The Doyon mine ended operations in December 2009. In the fourth quarter of 2009, the Company approved a program to extend the life of the Mouska Mine to early 2012, through the use of paste backfill produced from the Doyon paste plant.",0,1,1,https://www.mindat.org/loc-256959.html,https://mininglifeonline.net/company-article/doyon-division-gold-mines--qu--bec/3013,https://www.sec.gov/Archives/edgar/data/1203464/000119312514010943/d654919dex991.htm,Inactive,POINT (-78.519197 48.2557)
ON-MINCAN-7b16c0c2,Canamax Resources Inc.,Hollinger Consolidated Gold Mines,Algoma Exploration and Development Company,Patricia Mines Ltd.,,,Kremzar ,,Ontario,51.05136,-94.24474,1981,1988,,,,,Gold,,0,1,1,https://www.mindat.org/loc-261631.html,http://www.geologyontario.mndm.gov.on.ca/mndmfiles/mdi/data/records/MDI42C08SW00007.html,,Inactive,POINT (-94.24474 51.05136)
ON-MINCAN-dbb37b4f,Global Stone (Ingersoll) Ltd.,Stelco (Steel Company of Canada Ltd.) Steel ,,,,,,Ingersoll,Ontario,43.0378437120556,-80.8841350608697,1990,2000,,,,,Lime,unclear ownership as for other Ingersoll entry,0,1,1,https://www.northernminer.com/subscribe-login/?id=1000178244,http://www.geologyontario.mndm.gov.on.ca/mndmfiles/mdi/data/records/MDI40P02SW00005.html,,Inactive,POINT (-80.8841350608697 43.0378437120556)
ON-MINCAN-bc53b407,Xstrata Nickel Canada,,,,,,Onaping/Craig,,Ontario,46.6441,-81.3669,1994,2009,,,,,"Nickel, Copper, Cobalt, Platinum, Gold, Silver, Selenium, Tellurium",,0,1,1,https://www.mindat.org/loc-230771.html,https://im-mining.com/2022/05/27/glencore-reveals-bev-mining-fleet-order-for-onaping-depth-all-electric-nickel-copper-mine/,,Inactive,POINT (-81.3669 46.6441)
QC-MINCAN-888e6db5,South-Malartic Exploration Inc.,,,,,,Croinor,Val d'Or,Quebec,48.110195,-77.018181,2004,2005,,,,,Gold,p. 21 'history' https://assets.website-files.com/5787b0e39bdd7b7161e7fd98/5dcc7ee1547376573adff622_MQR_2019_AIF.pdf,0,1,1,,,,Inactive,POINT (-77.018181 48.110195)
SK-MINCAN-5cc72a2d,Hudson Bay Mining and Smelting Co. Ltd. ,Potash Corporation of Saskatchewan (Rocanville Division),Agrium Inc.,,,,Vascoy (Rocanville Division),Vanscoy,Saskatchewan,52.01,-107.08,1971,2014,2015,open,,,"Potash, Salt",,0,1,0,,,,Active,POINT (-107.08 52.01)
SK-MINCAN-281f0f90,COGEMA Resources Inc.,Denison Mines Limited,"OURD (Canada) Co., Ltd. ",AREVA Resources Canada Inc.,,,McClean Lake,McMahon,Saskatchewan,58.261669,-103.803054822356,1999,2010,,,,,Uranium,,0,1,0,,,,Inactive,POINT (-103.803054822356 58.261669)
MB-MINCAN-741a8c99,Dumbarton Mines Ltd.,,,,,,,Bird River,Manitoba,50.469166666666666,-95.44555555555556,1922,1974,,,,,"Nickel, Copper",,0,1,0,,,,Inactive,POINT (-95.44555555555556 50.469166666666666)
MB-MINCAN-7761330d,Hudson Bay Mining and Smelting Co. Ltd. ,,,,,,Flin Flon,Flin Flon ,Manitoba,56.7545,-101.069493,1929,1990,,,,,"Copper, Zinc, Slerium, Tellerium, Gold",,0,1,0,,,,Inactive,POINT (-101.069493 56.7545)
NS-MINCAN-38a6ff45,Nystone Chemicals Ltd.,,,,,,Brookfield,Truro,Nova Scotia,45.272512,-63.2406018526383,1944,2008,,,,,"Barite, Barium, Siderite","Re-opening of barite mine by Nystone Chemicals, Brookfield, Nova Scotia",0,1,0,,,,Inactive,POINT (-63.2406018526383 45.272512)
QC-MINCAN-178d9a5e,Icon Syndicate,,,,,,Icon Sullivan,Chibougamau ,Quebec,50.238014,-73.811065,1967,1976,,,,,"Copper, Silver, Zinc",,0,1,0,,,,Inactive,POINT (-73.811065 50.238014)
SK-MINCAN-167cf44a,Sodium Sulphate (Saskatchewan) Ltd. ,Hudson Bay Mining and Smelting Co. Ltd.,Agassiz Resources Ltd.,,,,,Alsask ,Saskatchewan,51.339285,-109.865144706772,1967,1971,,,,,Sodium Sulphate,,0,1,0,,,,Inactive,POINT (-109.865144706772 51.339285)
SK-MINCAN-a2ba0470,Share Mines and Oils Ltd. ,,,,,,Hanson Lake,Hanson Lake ,Saskatchewan,54.6749965402056,-102.849441921105,1967,1969,,,,,"Zinc, Lead, Copper, Silver",,0,1,0,,,,Inactive,POINT (-102.849441921105 54.6749965402056)
BC-MINCAN-3d2c5b89,British Columbia Molybdenum,Amax of Canada Ltd.,,,,,Alice Arm,Kitsault ,British Columbia,55.421943,-129.41944,1967,1982,,,,,"Molybdenum, Silver, Lead, Zinc, Copper, Tungsten",,0,1,0,,,,Inactive,POINT (-129.41944 55.421943)
QC-MINCAN-96011c31,Wasamac Mines Ltd. ,,,,,,Wasamac 2,Arntfield ,Quebec,48.212151,-79.198681,1968,1988,1998,2001,,,"Gold, Copper, Silver",,0,1,0,,,,Inactive,POINT (-79.198681 48.212151)
MB-MINCAN-22c51d81,Tantalum Mining Corporation of Canada Ltd.,,,,,,Bernic Lake,Lac du Bonnet ,Manitoba,50.42861111111111,-95.4525,1969,2016,,,,,"Tantalum, Cesium",,0,1,0,,,,Inactive,POINT (-95.4525 50.42861111111111)
NS-MINCAN-1f581847,Cape Breton Development Corp.,,,,,,Phalen,New Waterford,Nova Scotia,46.2531427413166,-60.090546881297,1970,1976,,,,,Coal,"Closing of Devco’s Phalen Colliery, New Waterford, Cape Breton Island, Nova Scotia 1999 ",0,1,0,,,,Inactive,POINT (-60.090546881297 46.2531427413166)
QC-MINCAN-0ba394e8,Noranda Mines Ltd.,,,,,,,Cadillac ,Quebec,48.24999,-79.0164,1970,1980,,,,,"Copper, Gold, Silver, Selenium, Tellurium, Pyrite",,0,1,0,,,,Inactive,POINT (-79.0164 48.24999)
QC-MINCAN-f506b88c,Chesbar Iron Powder Ltd.,,,,,,,,Quebec,49.452351,-76.502154,1970,1971,,,,,Iron,,0,1,0,,,,Inactive,POINT (-76.502154 49.452351)
SK-MINCAN-3f1bcdcb,"Canadian Salt Company, Ltd.",,,,,,,Belle Plaine ,Saskatchewan,50.3937344175792,-105.15576252378,1970,open,,,,,Salt,,0,1,0,,,,Active,POINT (-105.15576252378 50.3937344175792)
SK-MINCAN-cbfb59a3,Potash Corporation of Saskatchewan Inc.,,,,,,Rocanville Division,Rocanville,Saskatchewan,50.458098,-101.533499428582,1970,open,,,,,Potash,,0,1,0,,,,Active,POINT (-101.533499428582 50.458098)
MB-MINCAN-5dc8e1cc,Falconbridge Nickel Mines Ltd. ,,,,,,Manibridge,Wabowden,Manitoba,54.70222222222223,-98.83722222222222,1971,1977,,,,,"Nickel, Copper",,0,1,0,,,,Inactive,POINT (-98.83722222222222 54.70222222222223)
YT-MINCAN-84f30fdf,Dawson Eldorado Gold Explorations Ltd.,,,,,,Plata ,,Yukon,63.58583333333333,-132.03194444444446,1972,2009,,,,,"Silver, Lead, Gold",,0,1,0,,,,Inactive,POINT (-132.03194444444446 63.58583333333333)
ON-MINCAN-7763265b,"Miller Minerals, a division of Miller Paving Limited",Dymond Clay Products Ltd.,,,,,Haileybury,Lake Timiskaming ,Ontario,47.4540811277114,-79.6736342409021,1991,open,,,,,"Limestone, lime",,0,1,0,,,,Active,POINT (-79.6736342409021 47.4540811277114)
SK-MINCAN-0e7fd863,Luscar Ltd.,,,,,,Shand,Estevan ,Saskatchewan,49.100149,-102.879739682922,1992,open,,,,,Coal,,0,1,0,,,,Active,POINT (-102.879739682922 49.100149)
NS-MINCAN-487f832a,Brogan Mining Company Limited,Greenhills Development Ltd.,,,,,Sullivan Creek or Florence,Florence ,Nova Scotia,46.2706638449,-60.2822605823,1997,2010,,,,,Coal,"Rio Algom constructing plant for tin mine, near Yarmouth, Nova Scotia",0,1,0,,,,Inactive,POINT (-60.2822605823 46.2706638449)
NL-MINCAN-01316355,Richmont Mines Inc.,Rambler Metals and Mining PLC,,,,,Nugget Pond,Baie Verte ,Newfoundland-and-Labrador,49.8450213403332,-55.7753590557103,1997,2010,,,,,"Gold, Copper",,0,1,0,,,,Inactive,POINT (-55.7753590557103 49.8450213403332)
BC-MINCAN-2afc910c,Comox Mining Co. Ltd. ,Canadian Collieries (Dunsmuir) Ltd. ,,,,,,,British Columbia,49.631388,-125.03805,1888,1967,,,,,"Coal, Fireclay",,0,0,1,https://www.memorybc.ca/canadian-collieries-dunsmuir,,,Inactive,POINT (-125.03805 49.631388)
QC-MINCAN-494c7715,Kiena Gold Mines Ltd.,Placer Dome Inc.,,,,,Kiena,Val d’Or ,Quebec,48.120858,-77.917978,1936,1996,2005,2013,2021,open,Gold,"Contradictory information: ""1981
• Production begins, Kiena gold mine, Val-d’Or, Quebec"" from https://publications.gc.ca/collections/Collection/M39-78-2001E.pdf",0,0,1,https://www.mindat.org/loc-195148.html,https://plus.lapresse.ca/screens/4549dde9-a343-488b-9ad8-1d67d6f58eda%7C_0.html,https://www.canadianminingjournal.com/featured-article/wesdome-reopens-kiena-mine/,Active,POINT (-77.917978 48.120858)
QC-MINCAN-83950e58,Elder Mines Ltd. ,Peel-Elder Mine Ltd.,Abcourt Mines Inc.,,,,Peel-Elder,Beauchastel,Quebec,48.286378,-79.130486,1944,1966,2016,open,,,"Gold, Silver, Copper, Lead, Silica",,0,0,1,https://publications.gc.ca/collections/Collection/M39-78-2001E.pdf,https://www.mindat.org/loc-256811.html,,Active,POINT (-79.130486 48.286378)
AB-MINCAN-27124b78,Mclntyre Coal Mines Ltd.,CST Canada Coal Limited,Up Energy Development Group Ltd.,,,,,Grande Cache ,Alberta,53.938609067,-119.178388597999,1967,1972,2004,2015,2018,2020,Coal,,0,0,1,https://www.gem.wiki/Grande_Cache_Coal,,,Inactive,POINT (-119.178388597999 53.938609067)
BC-MINCAN-92291585,Cusac Industries Ltd. ,Erikson Gold Mining Corp.,Total Erikson Resources Ltd.,,,,"Table Mountain, Cassiar Gold Property, Erikson, Jennie,(…) McDame Lake",Cassiar,British Columbia,59.195555,-129.68499,1978,1988,1994,2007,,,"Gold, Silver, Zinc, Lead, Copper, Antimony, Bismuth, Cadmium",Lots of prospection and sampling since then,0,0,1,https://minfile.gov.bc.ca/summary.aspx?minfilno=104P%20%20029,,,Inactive,POINT (-129.68499 59.195555)
QC-MINCAN-c972fc39,Ressources Nottaway Inc.,,,,,,Vezza,,Quebec,49.5329,-77.76671,1986,1988,1993,1997,2016,2019,"Gold, Silver",Also other periods with significan exploration at the mine.,0,0,1,https://www.sec.gov/Archives/edgar/data/887701/000114420411019323/v215932_ex1-1.htm,,,Inactive,POINT (-77.76671 49.5329)
BC-MINCAN-b7c27ef4,Conuma Coal Resources Ltd.,"Walter Energy, Inc.",,,,,Wolverine or Perry Creek,,British Columbia,55.0861,-121.2453,2006,2014,2017,open,,,Coal,https://www.gem.wiki/Wolverine_mine,0,0,1,,,,Active,POINT (-121.2453 55.0861)
AB-MINCAN-fb104999,Bighorn Mining Ltd.,,,,,,Vista,,Alberta,53.403506,-117.36642,2019,open,,,,,Coal,Possibly producing for a period before,0,0,1,https://thenarwhal.ca/alberta-coal-mine-vista-coalspur-finances/,,,Active,POINT (-117.36642 53.403506)
QC-MINCAN-c4a792be,Graybec Inc.,Graybec Calc Inc.,,,,,Domlin,Marbleton,Quebec,45.617966,-71.604558,1824,open,,,,,Lime,,0,0,1,https://gq.mines.gouv.qc.ca/documents/examine/DV200102/DV200102.pdf,,,Active,POINT (-71.604558 45.617966)
QC-MINCAN-a98e595a,Johnson's Asbestos Co. ,Asbestos Corporation Inc. ,,,,,,Thetford Mines ,Quebec,46.07861,-71.30056,1878,1964,,,,,Asbestos,,0,0,1,https://www.brownlawyers.ca/canadian-asbestos-mines.html,https://www.mindat.org/loc-207981.html,,Inactive,POINT (-71.30056 46.07861)
BC-MINCAN-0dc69334,McKinney Gold Mines Ltd.,Pioneer Gold Mines of B.C. Ltd,Highland-Bell Ltd.,,,,Cariboo-Amelia or Camps McKinney Gold,,British Columbia,49.0625,-119.13861,1887,1962,,,,,"Gold, Silver, Lead, Zinc, Copper, Pyrophyllite, Silica",many more producers listed here https://minfile.gov.bc.ca/summary.aspx?minfilno=082ESW020,0,0,1,https://minfile.gov.bc.ca/summary.aspx?minfilno=082ESW020,https://www.ximenminingcorp.com/project/amelia-gold-mine/,,Inactive,POINT (-119.13861 49.0625)
NS-MINCAN-0403a4c4,"Cape Breton Development Corp., (DEVCO),",,,,,,No. 26 Colliery,Glace Bay ,Nova Scotia,46.1745138817,-59.948724419,1900,1984,,,,,Coal,"Closing of Number 26 Colliery, Glace Bay, Nova Scotia.",0,0,1,https://publications.gc.ca/collections/Collection/M39-78-2001E.pdf,,,Inactive,POINT (-59.948724419 46.1745138817)
ON-MINCAN-95ee2b9c,Kerr Addison Gold Mines Ltd. ,Deak Resources Corp.,,,,,,Virginiatown ,Ontario,48.13708,-79.58034,1900,1963,1990,1996,,,Gold,,0,0,1,https://www.geologyontario.mndm.gov.on.ca/mndmfiles/mdi/data/records/MDI32D04SE00011.html,,,Inactive,POINT (-79.58034 48.13708)
BC-MINCAN-ba3df19a,Sheep Creek Gold Mines Ltd. ,Aetna Investment Corp. Ltd.,,,,,Sheep Creek (Queen or Yellowstone),,British Columbia,49.143055,-117.13444,1900,1989,,,,,"Gold, Silver, Lead, Zinc, Silica",,0,0,1,https://bcgoldadventures.com/sheep-creek-mining-camp/,,,Inactive,POINT (-117.13444 49.143055)
BC-MINCAN-3b8a165b,London Pride Silver Mines Ltd. ,,,,,,Cork-Province,slocan,British Columbia,49.907222,-117.07527,1900,1966,,,,,"Silver, Zinc, Lead, Cadmium, Gold, Copper",,0,0,1,https://cmscontent.nrs.gov.bc.ca/geoscience/PropertyFile/NMI/082F14_Zn4.pdf,,,Inactive,POINT (-117.07527 49.907222)
NS-MINCAN-17fc919f,Bras D'Or Coal Co. Ltd.,,,,,,,Broughton ,Nova Scotia,46.0832401664,-59.9758571735,1901,1969,,,,,Coal,many mines operated between 1901 and 1969 and it then became a ghost town (source3),0,0,1,https://notyourgrandfathersmining.ca/ghost-town-broughton,,,Inactive,POINT (-59.9758571735 46.0832401664)
BC-MINCAN-d6706625,Highland-Bell Ltd. ,Mastodon-Highland Bell Mines Ltd. ,Leitch Mines Ltd.,Teck Corporation,,,,Beaverdell ,British Columbia,49.429166,-119.06222,1901,1978,,,,,"Silver, Lead, Zinc, Gold",,0,0,1,https://cmscontent.nrs.gov.bc.ca/geoscience/PropertyFile/NMI/082E6_Ag1.pdf,,,Inactive,POINT (-119.06222 49.429166)
ON-MINCAN-dcad146e,Canadian Gypsum Co. Ltd.,CGC Inc.,,,,,,Hagersville ,Ontario,43.01223,-80.01629,1902,open,,,,,Gypsum,,0,0,1,http://www.geologyontario.mndm.gov.on.ca/mndmfiles/MDI/data/records/MDI40P01SE00002.html,https://www.usg.com/content/usgcom/en_CA_east/about-cgc/history-of-cgc.html,,Active,POINT (-80.01629 43.01223)
ON-MINCAN-2e153266,Silver Summit Mines Ltd.,Consolidated Summit Mines Limited,Barrick Resources Corporation,,,,Savage (Silver Summit),,Ontario,47.37574,-79.68324,1903,1964,,,,,Silver,,0,0,1,https://digital.library.mcgill.ca/hrcorpreports/search/detail.php?company=Barrick%20Gold%20Corporation&ID=643,https://www.mindat.org/loc-21599.html,,Inactive,POINT (-79.68324 47.37574)
QC-MINCAN-50314896,Canadian Refractories Ltd. ,"Dresser Industries Canada, Ltd.. (Canadian Refractories Division) (1975)",,,,,Kilmar or Dobbie?,Kilmar ,Quebec,45.75139,-74.61833,1907,1993,,,,,Magnesitic Dolomite,"Formerly: Kilmar Mine, Kilmar, Grenville township, Argenteuil Co., Québec, Canada

Mining started during World War I.The deposit was originally mined as an open pit. Underground mining began by means of adits from the open pit and then continued via a shaft sunk in 1937, reaching a depth of 700 feet in 1942.",0,0,1,https://www.mindat.org/loc-72867.html,https://www.mdpi.com/2075-163X/9/9/554,,Inactive,POINT (-74.61833 45.75139)
ON-MINCAN-d4a1a2d9,Harrison-Hibbert Mines Ltd. ,,,,,,Mud,,Ontario,47.41481,-79.62552,1907,1965,,,,,Silver,,0,0,1,https://www.mindat.org/loc-11757.html,,,Inactive,POINT (-79.62552 47.41481)
BC-MINCAN-ea2ae2b5,Giant Mascot Mines Ltd. ,Golden Giant Mines Company,Siscoe Mines Limited,Baroid of Canada Ltd,,,Giant Mascot,Hope,British Columbia,49.46444,-121.51361,1908,1983,,,,,"Lead, Zinc, Silver, Copper, Barite, Antimony, Cadmium",,0,0,1,https://inthewindermere.home.blog/2021/06/23/giant-mine-1/,https://www.mindat.org/loc-11356.html,,Inactive,POINT (-121.51361 49.46444)
ON-MINCAN-17e66074,HiHo Silver Mines Ltd. ,Ontario Government,Cleopatra Mining Co. Ltd.,La Rose Mines Ltd.,Silver Miller Mines Ltd.,Glen Lake Silver Mines Ltd.,,Cobalt ,Ontario,47.37083,-79.66541,1909,1970,,,,,Silver,"Glen Lake Silver Mines Ltd. Was another entry with overlap, but classified as the same and same location on the map. ",0,0,1,https://www.geologyontario.mndm.gov.on.ca/mndmfiles/mdi/data/records/MDI31M05SE00073.html,,,Inactive,POINT (-79.66541 47.37083)
ON-MINCAN-55100de8,McIntyre Porcupine Mines Ltd. ,,,,,,McIntyre,,Ontario,47.69009,-80.67301,1911,1984,,,,,"Silver, Cobalt",,0,0,1,https://www.mindat.org/loc-8344.html,https://www.mcintyrepowderproject.com/,https://ominous.app/browse/site/2365,Inactive,POINT (-80.67301 47.69009)
NS-MINCAN-de5d8c51,Malagash Salt Co. Ltd. ,"Canadian Rock Salt Co. Ltd., The ",,,,,Malagash salt,Malagash,Nova Scotia,45.79235,-63.32344,1918,1961,,,,,Salt,The currently entered coordinates are for the museum (see link attached),0,0,1,https://www.mindat.org/loc-290980.html,,,Inactive,POINT (-63.32344 45.79235)
AB-MINCAN-8e3e89bc,Red Deer Valley Coal Co. Ltd. ,,,,,,Foothills,,Alberta,53.0687800438999,-116.795689302,1918,1961,,,,,Coal,,0,0,1,https://issuu.com/experiencetravelguides/docs/experience_our_coal_history,,,Inactive,POINT (-116.795689302 53.0687800438999)
ON-MINCAN-44c103e1,Reliance Fluorspar Mining Syndicate Ltd. ,Canadian Industrial Minerals Limited,Wood Land Mineral Company,,,,Howard,Huntingdon Township,Ontario,44.48671,-77.48011,1920,1951,,,,,Fluorspar,,0,0,1,https://www.mindat.org/loc-233915.html,http://www.geologyontario.mndm.gov.on.ca/mndmfiles/pub/data/imaging/IMR012//IMR012.pdf,,Inactive,POINT (-77.48011 44.48671)
BC-MINCAN-1af9c930,Westmin Resources Ltd.,American Smelting and Refining Company,Blermah Mines Ltd.,Ascot Resources Ltd ,,,Premier,Silbak Premier Mine,British Columbia,56.054722,-130.0075,1921,1967,1989,1996,2009,open,"Gold, Silver, Lead, Zinc, Copper",many more owners,0,0,1,http://www.stewartbc.com/page59.html,https://minfile.gov.bc.ca/summary.aspx?minfilno=104B%20%20054,,Active,POINT (-130.0075 56.054722)
ON-MINCAN-56baaa6b,Battle Mountain Canada Ltd. and Teddy Bear Valley Mines Limited,,Kirkland Lake Gold Ltd.,,,,Holloway,Matheson,Ontario,48.523515,-79.74788,1922,1950,1996,2016,,,Gold,,0,0,1,http://www.geologyontario.mndm.gov.on.ca/mndmfiles/mdi/data/records/MDI32D12SE00186.html,,,Inactive,POINT (-79.74788 48.523515)
BC-MINCAN-b1f8d21f,Timmins Nickel Inc.,,,,,,Dome Mountain,Smithers,British Columbia,54.740333,-126.620667,1923,open,,,,,"Gold, Silver, Zinc, Lead",,0,0,1,https://minfile.gov.bc.ca/summary.aspx?minfilno=093L%20%20276,https://bluelagoonresources.com/dome-mountain/,,Active,POINT (-126.620667 54.740333)
YT-MINCAN-5ac6985a,"Yukon Consolidated Gold Corp. Ltd., The ",,,,,,,Dawson,Yukon,64.0643569720063,-139.432689891916,1926,1966,,,,,Gold,,0,0,1,https://albertaonrecord.ca/yukon-consolidated-gold-corporation-limited-fonds,https://emrlibrary.gov.yk.ca/ygs/ebooks/yukon-mineral-industry-1941-59.pdf,,Inactive,POINT (-139.432689891916 64.0643569720063)
ON-MINCAN-f326bc19,Sylvanite Gold Mines Ltd. ,,,,,,,,Ontario,48.15626,-80.02613,1927,1961,,,,,Gold,,0,0,1,http://www.geologyontario.mndm.gov.on.ca/mndmfiles/mdi/data/records/MDI42A08NW00111.html,,,Inactive,POINT (-80.02613 48.15626)
SK-MINCAN-f829adb1,Natural Sodium Products Ltd. ,,,,,,,Dunkirk,Saskatchewan,50.034899060058,-105.714431,1930,1950,,,,,Sodium Sulphate,,0,0,1,https://emrlibrary.gov.yk.ca/ebooks/canadian-mineral-industry/1936.pdf,,,Inactive,POINT (-105.714431 50.034899060058)
NB-MINCAN-64cab7f7,Miramichi Lumber Co. Ltd. ,,,,,,,Minto ,New Brunswick,46.08333333,-66.0166666666667,1932,2009,,,,,Coal,labour // Miramichi lumber strike and the strike in the MINTO coalfields in October 1937 forced the province to re-evaluate its labour relations policy and consequently to introduce new labour legislation in 1938. (link1) //// https://archives.gnb.ca/LHTNB/Categories/Labour_Landmarks/Minto_1932/Story_en-CA.aspx,0,0,1,https://www.thecanadianencyclopedia.ca/en/article/miramichi-lumber-strike,https://www1.gnb.ca/0078/GeoscienceDatabase/IndustrialMinerals/qryIndMinSummary-e.asp?Num=568,https://mynewbrunswick.ca/village-of-minto/,Inactive,POINT (-66.0166666666667 46.08333333)
MB-MINCAN-a9292578,"Canadian Salt Co. Ltd., The ",,,,,,,Neepawa ,Manitoba,50.23611111111112,-99.46388888888887,1932,1970,,,,,Salt,,0,0,1,https://mrsearch.gov.mb.ca/dbtw-wpd/exec/dbtwpub.dll?AC=GET_RECORD&XC=/dbtw-wpd/exec/dbtwpub.dll&BU=https%3A%2F%2Fmrsearch.gov.mb.ca%2FItm-cat%2Fweb%2Fminsearch.html&GI=&TN=mineralinventorycard&SN=AUTO14253&SE=244&RN=5&MR=0&TR=0&TX=1000&ES=0&XP=&RF=Web%3A+Brief&EF=Basic+Record+Form&DF=Viewing+PrintingWeb&RL=1&EL=1&DL=1&NP=3&ID=&MF=&DT=&ST=0&IR=836&NR=0&NB=0&SV=0&SS=1&BG=&FG=&QS=minsearch,,,Inactive,POINT (-99.46388888888887 50.23611111111112)
NS-MINCAN-f8793ddf,Victoria Gypsum Co. Ltd. ,,,,,,,,Nova Scotia,46.89361,-60.48389,1933,1955,,,,,Gypsum, gypsum mine called National Gypsum Company quarries operated between 1933 and 1955. The closure match the info of the Index of Producing Mines (source3),0,0,1,https://www.mindat.org/loc-16847.html,,,Inactive,POINT (-60.48389 46.89361)
NT-MINCAN-7fc88611,Eldorado Mining and Refining Ltd. ,,,,,,Eldorado,,Northwest Territories,66.08384,-118.03657,1933,1960,1975,1982,,,"Uranium, Radium, Silver, Copper","(see source3, p.223)",0,0,1,https://www.miningnorth.com/_rsc/site-content/library/NWT_Mines_History_RSilke2009.pdf,,,Inactive,POINT (-118.03657 66.08384)
ON-MINCAN-910ae5fa,Union Mintere Exploration & Mining Corp. Ltd.,,,,,,,Pickle Lake,Ontario,51.4637845328404,-90.185290267705,1935,1960,,,,,"Copper, Nickel",might reopen with indigenous participation,0,0,1,http://www.geologyontario.mndm.gov.on.ca/mndmfiles/afri/data/imaging/20000005718/20008076.pdf,,,Inactive,POINT (-90.185290267705 51.4637845328404)
NT-MINCAN-eae97f9d,Burwash Mining Co. Ltd. ,,,,,,,,Yukon,62.462500000000006,-114.31666666666666,1935,1952,,,,,Gold,gold rush,0,0,1,https://publications.gc.ca/collections/collection_2015/aadnc-aandc/R71-9-1959-1-eng.pdf,,,Inactive,POINT (-114.31666666666666 62.462500000000006)
AB-MINCAN-9e539865,West Canadian Collieries Ltd. ,,,,,,,,Alberta,49.5924539786563,-114.405280195553,1937,1961,,,,,Coal,,0,0,1,https://publications.gc.ca/collections/collection_2018/statcan/26-206/CS26-206-1956-eng.pdf,https://digitalcollections.ucalgary.ca/CS.aspx?VP3=DamView&VBID=2R3BXZ7608XLZ&PN=12&DocRID=2R3BF1FHNRUY&FR_=1&W=1280&H=520,,Inactive,POINT (-114.405280195553 49.5924539786563)
NS-MINCAN-4ed2d911,Canadian Industrial Minerals Ltd.,Magnet Cove Barium Corp.,,,,,,Walton ,Nova Scotia,45.2305704711816,-64.0063315080475,1941,1979,,,,,"Barite, Silver, Lead, Zinc",,0,0,1,https://archives.novascotia.ca/meninmines/timeline/,https://www.mindat.org/loc-7275.html,,Inactive,POINT (-64.0063315080475 45.2305704711816)
ON-MINCAN-2f8037b7,Broulan Reef Mines Ltd. ,,,,,,,,Ontario,48.51388,-81.21363,1944,1965,,,,,Gold,,0,0,1,http://www.geologyontario.mndm.gov.on.ca/mndmfiles/mdi/data/records/MDI42A11SE00021.html,https://www.mindat.org/loc-254728.html,,Inactive,POINT (-81.21363 48.51388)
YT-MINCAN-80f3537f,Yukon Explorations Ltd. ,,,,,,,close to forty mills,Yukon,64.2352952054867,-140.67175829808,1946,1954,,,,,Gold,about 30 workers in the first years,0,0,1,https://explorenorth.com/library/mining/sixtymile_gold_dredge.html,https://emrlibrary.gov.yk.ca/ygs/ebooks/yukon-mineral-industry-1941-59.pdf,,Inactive,POINT (-140.67175829808 64.2352952054867)
ON-MINCAN-966d4687,Hugh-Pam Porcupine Mines Ltd. ,,,,,,,,Ontario,48.51106,-81.17272,1948,1963,,,,,Gold,also more production pre-1950,0,0,1,https://www.geologyontario.mndm.gov.on.ca/mndmfiles/mdi/data/records/MDI42A11SE00020.html,,,Inactive,POINT (-81.17272 48.51106)
NT-MINCAN-d2265a7f,Discovery Mines Ltd.,Transcontinental Resources Ltd.,Arctic Red Resources Corporation,,,,La Forma ,,Yukon,63.1875,-113.89583333333334,1950,1969,,,,,Gold,It also produced in the late 1930s https://www.cambridge.org/core/journals/polar-record/article/abs/notes-on-mining-development-reindeer-husbandry-the-eiderdown-industry-in-the-canadian-arctic/FA995FBBD19E425E800252F382721327,0,0,1,https://data.geology.gov.yk.ca/Occurrence/14287#InfoTab,,,Inactive,POINT (-113.89583333333334 63.1875)
ON-MINCAN-be2d685f,Copperfields Mining Corp. Ltd. ,Temagami Mining Co. Ltd. ,,,,,,Temagami,Ontario,46.96242,-80.03778,1952,1977,,,,,"Copper, Gold, Silver, Nickel, Cobalt, Platinum, Palladium",Alternative Name Temagami Mine  closed (abandoned),0,0,1,https://www.geologyontario.mndm.gov.on.ca/mndmfiles/mdi/data/records/MDI41I16NE00004.html,,,Inactive,POINT (-80.03778 46.96242)
ON-MINCAN-75958a0a,"International Nickel Co. of Canada, Ltd., The",Inco Metals Company,Inco Limited,,,,Shebandowan ,Thunder Bay ,Ontario,48.596789,-90.247925,1952,1995,,,,,"Nickel, Copper",,0,0,1,https://www.geologyontario.mndm.gov.on.ca/mndmfiles/mdi/data/records/MDI52B09SE00003.html,,,Inactive,POINT (-90.247925 48.596789)
QC-MINCAN-b8e1cb40,Iron Ore Co. of Canada,,,,,,Carol Lake project or Knob Lake,Schefferville ,Newfoundland-and-Labrador,54.791688,-66.80881,1954,1983,,,,,Iron,very large working force - 2300 workers/ 650 workers,0,0,1,https://www.ironore.ca/en/who-we-are/history-of-ioc,,,Inactive,POINT (-66.80881 54.791688)
NB-MINCAN-e35a908b,Anaconda American Brass Ltd.,Blue Note Mining Inc.,,,,,Heath Steele,Restigouche,New Brunswick,47.29292,-66.06779,1955,1999,2007,2008,,,"Zinc, Lead, Copper, Silver",,0,0,1,https://www.mindat.org/loc-11777.html,https://www.mindat.org/feature-12096448.html,,Inactive,POINT (-66.06779 47.29292)
QC-MINCAN-1532a658,Lyndhurst Mining Co. Ltd. ,,,,,,,,Quebec,48.572282,-78.959584,1955,1957,,,,,"Copper, Silver, Gold, Zinc, Lead",,0,0,1,https://depositum.uqat.ca/id/eprint/420/1/cahierhist2.pdf,,,Inactive,POINT (-78.959584 48.572282)
QC-MINCAN-73792570,Gaspe Copper Mines Ltd. ,,,,,,,Murdochville ,Quebec,48.97056,-65.52028,1955,1999,1984,2002,,,Copper,"city founded in 1951. There was a fire at the mine in 1987 and the production stopped until 1989. However, after 1987, the mine exited the list of principal mines (see wikipedia of Murdochville). Trade unions very imporant. March: Miners’ strike lasts seven and a half months making it the longest conflict in the unionization period in Quebec.
closure voted by referendum",0,0,1,https://www.mindat.org/loc-11307.html,https://www.cbc.ca/news/canada/montreal/murdochville-65-1.4757118,https://qahn.org/article/noranda-mines-gaspe-division-historical-highlights,Inactive,POINT (-65.52028 48.97056)
ON-MINCAN-2d253aae,Consolidated Denison Mines Ltd.,Denison Mines Ltd.,Rio Algom Mines Ltd. ,,,,Denison,Elliot Lake ,Ontario,46.495597,-82.600236,1957,1992,,,,,Uranium,,0,0,1,https://www.mindat.org/loc-23378.html,https://www.wikiwand.com/en/Stanrock_Mine,https://presentlywandering.wordpress.com/2015/05/21/stanrock-mine-townsite/,Inactive,POINT (-82.600236 46.495597)
QC-MINCAN-c61b7e60,Beauce Placer Mining Co. Ltd.,,,,,,,,Quebec,46.21785,-70.77873,1958,1963,,,,,Gold,"(see source3, p.15)",0,0,1,https://www.hpqSilica.com/wp-content/uploads/2017/11/HPQ-NI-43-101-V8B-BEAUCE-GOLD-FIELDS-FINAL-25-09-2017.pdf,,,Inactive,POINT (-70.77873 46.21785)
ZZ-MINCAN-93489a7a,"Canadian Rock Salt Co. Ltd., The ",,,,,,Pugwash,Cumberland County (Pugwash),Nova Scotia,45.84167,-63.65389,1959,open,,,,,Salt,,0,0,1,https://www.mindat.org/loc-234609.html,,,Active,POINT (-63.65389 45.84167)
QC-MINCAN-fec0089b,Northgate Patino Mines Inc.,Northgate Exploration,Patino Mining Corp,Copper Rand Chibougamau Mines Ltd. ,Campbell Resources Inc.,,Copper Rand,Chibougamau ,Quebec,49.889332,-74.275314,1959,1997,2004,2008,,,"Copper, Gold, Silver",https://collections.banq.qc.ca/ark:/52327/bs20585,0,0,1,https://www.dorecopper.com/en/projects/copper-rand/,https://www.mindat.org/loc-10337.html,http://www.chibougamaumines.com/documents/Technical_Reports_lac_chibougamau_SEDAR_000.pdf,Inactive,POINT (-74.275314 49.889332)
QC-MINCAN-1303d687,Akasaba Gold Mines Ltd.,,,,,,,,Quebec,48.042094,-77.581074,1960,1963,,,,,Gold,,0,0,1,https://depositum.uqat.ca/id/eprint/424/1/cahierhist6.pdf,,,Inactive,POINT (-77.581074 48.042094)
ON-MINCAN-bc7c770c,VenCan Gold Corporation and River Gold Mines Ltd,,,,,,Edwards,Wawa ,Ontario,48.31628,-84.3574,1960,2001,,,,,Gold,The mine was also in operation from 1933 to 1939,0,0,1,https://s24.q4cdn.com/779615370/files/doc_downloads/island_reports/08/IG-Phase-III-Technical-Report-Final.pdf,,,Inactive,POINT (-84.3574 48.31628)
AB-MINCAN-36550536,Baroid of Canada Ltd.,,,,,,,Onoway ,Alberta,53.7035660221994,-114.193072868292,1960,1989,,,,,Bentonite,"In recent years there have been three sodium bentonite producers in Canada, one in Saskatchewan and two in Alberta. The Alberta operations (located in Rosalind and Onoway) traditionally produced very small quantities of bentonite for local oil-industry use. As of 1989 neither of these operations was in production, although the Rosalind operation resumed limited production in 1990. The Saskatchewan bentonite mining and processing plant, located near Avonlea, is smaller than the American operations. It has undergone a number of changes in ownership in the past twenty years, some of which, including the most recent one (1989-1991), have resulted in the complete shutdown of the operation for extended periods. Customers requiring the product have had to go to the somewhat more stable U.S.
suppliers. The Canadian bentonite also has some limitations in its use and availability, as discussed in later sections of this report",0,0,1,https://inis.iaea.org/collection/NCLCollectionStore/_Public/25/011/25011663.pdf,https://static.ags.aer.ca/files/document/ESR/ESR_1966_02.pdf,,Inactive,POINT (-114.193072868292 53.7035660221994)
BC-MINCAN-4f76c5f0,Coast Copper Co. Ltd. ,Imasco Minerals Inc.,,,,,,Benson Lake ,British Columbia,59.58272,-133.65358,1960,1973,1985,2016,,,"Copper, Magnetite, Iron, Gold, Silver, Limestone",The mine at its second opening produced limestone,0,0,1,https://minfile.gov.bc.ca/summary.aspx?minfilno=092L%20%20091,https://minfile.gov.bc.ca/Summary.aspx?minfilno=092L++295,,Inactive,POINT (-133.65358 59.58272)
NS-MINCAN-c76b7edc,Bestwall Gypsum Co. ,Georgia Pacific Corps.,Bestwall Gypsum Division,Macleod Resources Limited,,,River Denys,River Denys ,Nova Scotia,45.83693,-61.17805,1964,2012,,,,,Gypsum,Info on working years here http://nsminerals.atspace.com/LakeEnon.html,0,0,1,https://archives.novascotia.ca/meninmines/archives/?ID=406,https://novascotia.ca/nse/ea/kennedymarble/kbbrmdoc1.pdf,,Inactive,POINT (-61.17805 45.83693)
NL-MINCAN-75ac8660,Raymo Processing Limited,Consolidated Rambler Mines Ltd. ,,,,,Rambler Tailings,Baie Verte ,Newfoundland-and-Labrador,49.88333,-56.08333,1964,1982,1996,1997,,,"Copper, Gold, Silver, Zinc, Cadmium",It employed approximately 200 men. ,0,0,1,https://www.gov.nl.ca/iet/files/mines-production-rambler-phase1esa05mar31.pdf,,,Inactive,POINT (-56.08333 49.88333)
QC-MINCAN-d737bc31,Norbeau Mines (Quebec) Ltd. ,,,,,,Norbeau,Chibougamau ,Quebec,49.959221,-74.305286,1965,1969,,,,,"Gold, Silver, Copper, Arsenic",,0,0,1,https://www.mindat.org/loc-194143.html,https://www.globenewswire.com/en/news-release/2021/03/22/2196798/0/en/Dor%C3%A9-Copper-Consolidates-and-Options-the-High-Grade-Norbeau-Gold-Properties-in-the-Chibougamau-Mining-Camp-Quebec.html,https://www.ontrackexploration.com/OnTrackExploration/index.php?option=com_content&view=article&id=22,Inactive,POINT (-74.305286 49.959221)
BC-MINCAN-c4bfc9ab,Chemical Lime Company,Texada Lime Ltd.,,,,,,Fort Langley,British Columbia,49.1895218775501,-122.660631430691,1970,open,,,,,Lime,"Chemical Lime Company Of Canada Formerly Known As Texada Lime Was Established In 1970. The Company Was Purchased In 1992 By The Chemical Lime Company (Lhoist North America) With Corporate Offices In Fort Worth Texas. Chemical Lime Company Is The Leading Manufacturer Of Lime Based Products In North America. The Manufacturing Plant Is Located In Langley BC. Products Produced At This Location Include Quicklime (Calcium Oxide), Hydrated Lime (Calcium Hydroxide And Limestone (Calcium Carbonate). These Products Are Used In The Mining, Pulp & Paper Industries, Agricultural, Construction And Environmental Applications.",0,0,1,https://www.ctidirectory.com/search/company.cfm?company=22620,https://cmscontent.nrs.gov.bc.ca/geoscience/publicationcatalogue/OpenFile/BCGS_OF1992-18.pdf,,Active,POINT (-122.660631430691 49.1895218775501)
BC-MINCAN-8cc41b53,Gibraltar Mines Ltd.,Westmin Resources limited and Boliden Westmin (Canada) Limited,Taseco Mines Limited and Ledcor Mining Ltd. ,Placer Development Ltd.,,,Gibraltar,McLeese Lake,British Columbia,52.529808,-122.286536,1972,1998,2004,open,,,"Copper, Molybdenum",,0,0,1,https://minfile.gov.bc.ca/Summary.aspx?minfilno=093B%20%20012,https://www.tasekomines.com/properties/gibraltar/project-summary,,Active,POINT (-122.286536 52.529808)
BC-MINCAN-be8c27ca,Bradina Joint Venture,Pacific Houston,Equity Metals Corporation,,,,Silver Queen,Owen Lake,British Columbia,54.083333,-126.716111,1972,open,,,,,"Silver, Lead, Zinc, Gold, Copper",,0,0,1,https://minfile.gov.bc.ca/Summary.aspx?minfilno=093L++002,"https://equitymetalscorporation.com/projects/silver-queen-project/#:~:text=The%20Silver%20Queen%20gold%2Dsilver,km%20south%20of%20Houston%20BC.",,Active,POINT (-126.716111 54.083333)
ON-MINCAN-78fee3c0,Calcitherm Nederland BV,Carmeuse North America Group,Beachville Ltd.,,,,Plant,Ingersoll,Ontario,43.0916644714438,-80.8404767639639,1973,open,,,,,Lime,,0,0,1,http://www.companylisting.ca/Carmeuse_Lime_Canada_Limited_Beachville_Operations/default.aspx,,,Active,POINT (-80.8404767639639 43.0916644714438)
ON-MINCAN-1b9e07e6,Luzenac Inc.,,,,,,Penhorwood,Penhorwood Township,Ontario,48.19416,-82.09663,1973,1994,,,,,Talc,,0,0,1,https://mininglifeonline.net/company-page/penhorwood-mine/477,https://www.geologyontario.mndm.gov.on.ca/mndmfiles/mdi/data/records/MDI42B01NE00009.html,,Inactive,POINT (-82.09663 48.19416)
ON-MINCAN-109b2f38,Westroc Industries Limited,,,,,,Drumbo,Clarkson ,Ontario,43.22479,-80.61253,1978,1994,,,,,Gypsum,unclear ownership sequence (and dates) as for other Ingersoll entry,0,0,1,https://www.geologyontario.mndm.gov.on.ca/mndmfiles/mdi/data/records/MDI40P02NE00002.html,,,Inactive,POINT (-80.61253 43.22479)
NS-MINCAN-5ef9bc93,Yava Mines Ltd.,,,,,,Silvermines ,"Salmon River area, Cape Breton",Nova Scotia,45.8665,-60.4023,1979,1981,,,,,Lead,"Discovered in 1962: Production begins, Yava mine, Salmon River area, Cape Breton, Nova Scotia.",0,0,1,https://mrdata.usgs.gov/mrds/show-mrds.php?dep_id=10133502,https://publications.gc.ca/collections/Collection/M39-78-2001E.pdf,,Inactive,POINT (-60.4023 45.8665)
QC-MINCAN-44e0bdee,Armand Sicotte et Fils,Les Sables Silco Inc.,,,,,Sainte-Clotilde (Armand Sicotte) or Marcil Quarry,Howick/Saint-Clothilde,Quebec,45.138417,-73.644215,1980,open,,,,,Silica,,0,0,1,https://www.mindat.org/loc-187929.html,,,Active,POINT (-73.644215 45.138417)
BC-MINCAN-9046c95e,Westar Mining Corporation,Kaiser Resource,Teck Cominco Limited,B.C Coal,,,"Elkview, formely Balmer",Sparwood,British Columbia,49.78611,-114.82749,1980,2015,,,,,Coal,strike in 1980-1 (link1),0,0,1,https://www.upi.com/Archives/1981/07/23/Officials-at-BC-Coal-Ltds-coal-operations-in-Sparwood/2563364708800/,https://open.library.ubc.ca/media/stream/pdf/831/1.0096357/1,https://minfile.gov.bc.ca/Summary.aspx?minfilno=082GNE014,Inactive,POINT (-114.82749 49.78611)
AB-MINCAN-9faa9df0,Gregg River Resources Ltd. ,,,,,,Gregg River,Hinton,Alberta,53.0930820390999,-117.508709734,1980,2000,,,,,Coal,,0,0,1,https://www.cclmportal.ca/resource/reclamation-gregg-river-mine-canada,,,Inactive,POINT (-117.508709734 53.0930820390999)
AB-MINCAN-94ccee48,Obed Mountain Coal Co. Ltd. ,,,,,,Obed-Marsh,Hinton,Alberta,53.6071952531999,-117.460447091999,1980,2003,,,,,Coal,,0,0,1,https://www.canadianminingjournal.com/news/coal-mining-news-luscar-suspends-production-at-obed-mountain/,,,Inactive,POINT (-117.460447091999 53.6071952531999)
ON-MINCAN-37c8fe8f,Orofino Resources Ltd.,Westfield Minerals Limited,,,,,Grandoro,Davis Twp. ,Ontario,46.65107,-80.61542,1981,1988,,,,,"Gold, Copper",The mine was also in production from 1899 to 1941. //// It is one of three main occurrences forming the historic Orofino Mountain gold camp.,0,0,1,https://minfile.gov.bc.ca/summary.aspx?minfilno=082ESW011,https://minfile.gov.bc.ca/Summary.aspx?minfilno=082ESW010,,Inactive,POINT (-80.61542 46.65107)
ON-MINCAN-adda411d,Kidd Creek Mines Ltd.,Falconbridge Ltd.,"Placer Dome (CLA) Limited and Kinross Gold Corporation, Porcupine Joint Venture",,,,Owl Creek,Timmins ,Ontario,48.55056,-81.13944,1981,1990,,,,,Gold,,0,0,1,https://www.mindat.org/loc-194803.html,https://publications.gc.ca/collections/Collection/M39-78-2001E.pdf,https://bc-mlard.ca/files/presentations/2016-1-MARTIN-ETAL-owl-creek-part1.pdf,Inactive,POINT (-81.13944 48.55056)
ON-MINCAN-a9fc3088,Zenmac Metal Mines Ltd.,,,,,,,Schreiber ,Ontario,48.97755,-87.36555,1981,1998,,,,,Zinc,,0,0,1,http://www.geologyontario.mndm.gov.on.ca/mndmfiles/mdi/data/records/MDI42D14NW00015.html,,,Inactive,POINT (-87.36555 48.97755)
ON-MINCAN-c4ce1bd1,Ateba Mines Inc.,Teck Corporation,Norex Mines Ltd,Beardmore Gold Mines Ltd.,,,,Beardmore,Ontario,49.610917,-87.938508,1981,1989,,,,,Gold,"The mine was also in production from 1926 to 1941 ///// more companies: Pancontinental Mining (Canada) Ltd. And Roxmark and Ontex Resources Ltd. /// Northern Empire Mine - 1939, Pancontinental - 1984, Pan-Empire - 1984, Beardmore Gold Mines - 1926",0,0,1,http://www.geologyontario.mndm.gov.on.ca/mndmfiles/mdi/data/records/MDI42E12SW00002.html,http://www.geologyontario.mndm.gov.on.ca/mndmfiles/mdi/data/records/MDI42E12SW00002.html,,Inactive,POINT (-87.938508 49.610917)
ZZ-MINCAN-a62feaf9,Potash Company of America,Potash Company of America Inc. (a Division of Rio Algom Limited),,,,,Sussex (Lower Millstream Potash),Sussex ,New Brunswick,45.4435,-65.27,1983,open,,,,,"Potash, Salt",,0,0,1,https://www1.gnb.ca/0078/GeoscienceDatabase/IndustrialMinerals/qryIndMinSummary-e.asp?Num=240,,,Active,POINT (-65.27 45.4435)
BC-MINCAN-9d3ba598,New Privateer Mine Ltd.,,,,,,New Privateer,Zeballos ,British Columbia,50.03028,-126.81889,1983,1991,,,,,Gold,,0,0,1,https://minfile.gov.bc.ca/summary.aspx?minfilno=092L%20%20008,,,Inactive,POINT (-126.81889 50.03028)
BC-MINCAN-9568ffa5,Quinsam Coal Ltd.,Hillsborough Resources Limited,,,,,Quinsam,Quinsam Mine,British Columbia,49.935277,-125.48749,1986,2015,2017,open,,,"Coal, Fireclay, Clay",,0,0,1,https://publications.gc.ca/collections/collection_2017/statcan/44-250/CS44-250-1989.pdf,,,Active,POINT (-125.48749 49.935277)
QC-MINCAN-dfd0e79a,Audrey Resources Inc. ,Breakwater Resources Ltd.,,,,,Mobrun (Bouchard-Hebert) ,Rouyn-Noranda,Quebec,48.389454,-78.901713,1987,1992,1996,2005,,,"Zinc, Copper, Gold, Silver",https://www.mindat.org/loc-244581.html,0,0,1,https://mrdata.usgs.gov/mrds/show-mrds.php?dep_id=10230614,http://www.24hgold.com/english/project.aspx?id=3132160D5010,https://www.woodmac.com/reports/metals-bouchard-hebert-closed-zinc-mine-16200547/,Inactive,POINT (-78.901713 48.389454)
ON-MINCAN-421e454e,Reiss Lime Co. of Canada Ltd. ,Koch Minerals Company (Reiss Lime),Northern Lime Limited,Lafarge Canada Inc.,,,Reiss Lime,Spragge,Ontario,46.201523552166,-82.6931353958627,1988,open,,,,,Lime,"It is more local production. This might be a problematic point because it is an indirect industry to a copper and uranium mines that closes during these years : see ""Carmeuse Lime Limited and Lafarge Canada Inc., formerly Reiss Lime Co. of Canada Ltd., was
established in Long Township during the 1970's to serve a resurgent uranium industry. With a dock accessible by Great Lake freighters, Carmeuse receives shipments of limestone, coal, and coke to make lime for the mining industry. The company has expanded to include storage for sulphuric acid for redistribution and is a major trans-shipment point for road salt that is distributed throughout Northern Ontario. Lafarge Canada Inc. produces a slag cement product used for backfilling in area mines.
During the 1980's, the population and, as a direct result, the service industries diminished appreciably in step with the declining uranium industry. During this time market prices for ore were lower than the production costs, and as a result contracts were lost. With depleting ore reserves, closure of the mines was inevitable and the impact on the area from 1991-1996 was drastic, with the local economy being hit hard. Despite this setback the area continues to thrive in its own way."" from https://townshipofthenorthshore.ca/documents/assets/uploads/files/en/historical_sketch.pdf",0,0,1,http://www.geologyontario.mndm.gov.on.ca/mndmfiles/pub/data/imaging/NSP001//nsp001.pdf,,,Active,POINT (-82.6931353958627 46.201523552166)
QC-MINCAN-8321e85e,Dumagami Mines Ltd. ,Agnico Eagle Mines Limited,Delfer Gold Mines Inc.,Agnico-Eagle Mines Ltd. (Donald LaRonde Mine),,,LaRonde,Cadillac ,Quebec,48.250795,-78.441603,1988,open,,,,,"Gold, Silver, Copper, Zinc, Lead","This is the Terrex which is part of Agnico Eagle's Laronde Mine and is 100% owned. The Terrex property consists of 21 mining claims that cover in total 424.4 hectares. In 2003, exploration work started to extend outside of the LaRonde property onto the Terrex property where a down-plunge extension of Zone 20 North was discovered. The Terrex property is subject to a 5% net profits royalty to Delfer Gold Mines Inc. and a 2% net smelter return royalty to Barrick. The Company does not expect to pay royalties on this part of the property in 2011. //// El Coco and Terrex properties (collectively the ""LaRonde Mine""),",0,0,1,https://www.canadianminingjournal.com/featured-article/getting-down-and-dirty-at-laronde/,https://www.agnicoeagle.com/English/operations/operations/laronde/default.aspx,http://wikimapia.org/30642990/Terrex-Property,Active,POINT (-78.441603 48.250795)
SK-MINCAN-023e8a76,Saskatoon Chemicals Ltd.,,,,,,,Saskatoon,Saskatchewan,52.1582677135294,-106.674710181748,1989,1991,,,,,Salt,"In Saskatchewan, Mosaic Potash Esterhazy Limited Partnership (formerly IMC Esterhazy Canada Limited Partnership) supplies by-product rock salt from its potash operation at Esterhazy to Kayway Salt, which distributes it locally for road de-icing. Saskatoon Chemicals (“SaskChem,” a division of Sterling Chemicals Holdings, Inc.) produces brines from wells near Saskatoon for the manufacture of caustic soda, chlorine, and sodium chlorate to be used internally for its pulp chemicals operations.",0,0,1,https://natural-resources.canada.ca/sites/www.nrcan.gc.ca/files/mineralsmetals/pdf/mms-smm/busi-indu/cmy-amc/2008revu/pdf/sal-sel-eng.pdf,,,Inactive,POINT (-106.674710181748 52.1582677135294)
QC-MINCAN-282b90a9,Aur Resources Inc. ,Novicourt Inc. ,Teck (Cominco Limited) Corporation,,,,Louvicourt,Val d'Or,Quebec,48.1003,-77.502718,1994,2005,,,,,"Copper, Zinc, Silver, Gold, Lead",,0,0,1,https://www.onemine.org/document/abstract.cfm?docid=230009,https://open.library.ubc.ca/soa/cIRcle/collections/59367/items/1.0042600,,Inactive,POINT (-77.502718 48.1003)
ON-MINCAN-0b5ec1ba,MarFred Minerals Ltd.,Extender Minerals of Canada Ltd.,,,,,Tracey Lake,,Ontario,47.4162,-81.023788,2000,2017,,,,,Barite,,0,0,1,http://www.geologyontario.mndm.gov.on.ca/mndmfiles/mdi/data/records/MDI41P06NE00005.html,,,Inactive,POINT (-81.023788 47.4162)
QC-MINCAN-6ddc0434,Bell Allard Mines Ltd.,,,,,,Bell Allard,Matagami ,Quebec,49.700976,-77.725148,2000,2004,,,,,"Zinc, Silver, Copper, Gold, Lead",link2 for different dates,0,0,1,https://www.canadianminingjournal.com/featured-article/zinc-division-new-mine-different-strategy-bell-allard-mine/,https://www.mindat.org/loc-186823.html,https://collections.banq.qc.ca/ark:/52327/bs20585,Inactive,POINT (-77.725148 49.700976)
NS-MINCAN-398607cd,Black Bull Resources Inc.,,,,,,White Rock,Shelburne ,Nova Scotia,44.10752,-65.694008,2002,2011,,,,,Quartz,"Closing of Devco’s Phalen Colliery, New Waterford, Cape Breton Island, Nova Scotia 1999 ..?",0,0,1,https://novascotia.ca/nse/ea/bbullwhiterock1.asp,,,Inactive,POINT (-65.694008 44.10752)
ON-MINCAN-97f916de,"River Gold Mines Ltd., ",,,,,,Mishi,Wawa ,Ontario,48.10967,-85.45982,2002,open,,,,,Gold,,0,0,1,https://miningdataonline.com/property/1238/Mishi-Mine.aspx,https://mininglifeonline.net/company-article/mishi-open-pit-mine/8918,,Active,POINT (-85.45982 48.10967)
NS-MINCAN-34f7c905,Brogan Mining Company Limited,Old Sydney Collieries Ltd.,,,,,Little Pond,Alder Point,Nova Scotia,45.31685,-62.04859,2004,2005,,,,,Coal,"Brogan operated at Little Pond on the site of the former Alexander and No. 7 mines from 1999 to 2003, subsequently moving North to Merritt Point, immediately South of the Cape Crushing operation, producing for a short time, 2004-2005. from https://notyourgrandfathersmining.ca/sullivan-creek",0,0,1,https://novascotia.ca/natr/meb/data/pubs/06re01/Appendix01.pdf,,,Inactive,POINT (-62.04859 45.31685)
ON-MINCAN-d0dd9a76,Falconbridge Limited,Xstrata,Glencore,,,,Montcalm,Timmins,Ontario,48.6659,-82.09741,2004,2009,,,,,"Nickel, Copper, Platinum, Cobalt, Silver, Gold","The former Montcalm Mine, currently owned by Glencore, was discovered and developed based on a single airborne electromagnetic anomaly identified in the 1970s"" from https://voltagemetals.com/montcalm-project/",0,0,1,https://ero.ontario.ca/notice/019-2192,https://www.mindat.org/loc-259836.html,,Inactive,POINT (-82.09741 48.6659)
NL-MINCAN-ea6fb7af,Hurley Slate Works Company Inc.,,,,,,Hurley or Burgoyne's Cove quarry,Trinity Bay,Newfoundland-and-Labrador,47.5175638126811,-52.9593956444178,2005,2010,,,,,Dimension Stone,Hurley Slate Works Company Inc. operated a slate quarrying and processing operation in Burgoyne’s Cove that shut down in August 2010.,0,0,1,https://www.cbc.ca/landandseanl/2010/07/the-story-of-a-quarry.html,,,Inactive,POINT (-52.9593956444178 47.5175638126811)
ON-MINCAN-0eb0eebf,De Beers,,,,,,Victor Diamond,James Bay Lowland,Ontario,52.82667,-83.88528,2008,2019,,,,,Diamond,"environmental impact with impact on various First Nations
 500 full-time employees with 100 from Attawapiskat First Nation",0,0,1,https://www.mindat.org/loc-205700.html,,,Inactive,POINT (-83.88528 52.82667)
ON-MINCAN-576563a5,Lafarge Canada Inc.,,,,,,Woodstock,,Ontario,43.0987,-80.903,1956,2008,,,,,Limestone,,0,0,0,,,,Inactive,POINT (-80.903 43.0987)
MB-MINCAN-d120fe77,Vale Canada Limited,,,,,,Birchtree,,Manitoba,55.701479,-97.927009,1965,1978,1989,2017,,,"Nickel, Copper, Cobalt, Platinum",,0,0,0,,,,Inactive,POINT (-97.927009 55.701479)
ON-MINCAN-5ea38d2b,First Nickel Inc.,Falconbrigde Ltd,,,,,Lockerby,,Ontario,46.433,-81.3238,1971,2008,2011,open,,,"Nickel, Copper, Cobalt, Platinum, Gold, Silver, Selenium, Tellurium",,0,0,0,,,,Active,POINT (-81.3238 46.433)
AB-MINCAN-dc69d788,Teck Resources Limited,,,,,,Cardinal River (Cheviot),,Alberta,53.0667,-117.4,2005,2020,,,,,Coal,,0,0,0,,,,Inactive,POINT (-117.4 53.0667)
BC-MINCAN-b2fb2f65,Anglo American plc,,,,,,Trend,,British Columbia,54.898333,-120.961706,2005,2014,,,,,Coal,,0,0,0,,,,Inactive,POINT (-120.961706 54.898333)
ON-MINCAN-49811fe2,Richmont Mines Inc.,,,,,,Island Gold,,Ontario,48.297,-84.4429,2007,open,,,,,Gold,,0,0,0,,,,Active,POINT (-84.4429 48.297)
ON-MINCAN-8cc0bb47,Liberty Mines Inc.,Northern Sun Mining Corp.,,,,,Redstone,,Ontario,48.3169444444,-81.1647222222,2007,open,,,,,Nickel,with puntual suspension of activities,0,0,0,,,,Active,POINT (-81.1647222222 48.3169444444)
QC-MINCAN-7f3c4044,First Metals Inc.,,,,,,Fabie Bay,,Quebec,48.4407,-79.3526,2007,2009,,,,,"Copper, Zinc, Gold, Silver",,0,0,0,,,,Inactive,POINT (-79.3526 48.4407)
NL-MINCAN-0d8566cf,Teck Cominco Limited,,,,,,Duck Pond,,Newfoundland-and-Labrador,48.630978,-56.50069,2007,2015,,,,,"Copper, Zinc",,0,0,0,,,,Inactive,POINT (-56.50069 48.630978)
BC-MINCAN-1ba2a96d,Forty Two Metals Inc. (Roca Mines Inc.),,,,,,MAX,,British Columbia,50.6457,-117.586,2007,2010,2011,open,,,Molybdenum,,0,0,0,,,,Active,POINT (-117.586 50.6457)
MB-MINCAN-1e5db9af,San Gold Corporation,,,,,,San Gold No. 1,,Manitoba,51.0258,-95.6216,2007,2008,,,,,Gold,,0,0,0,,,,Inactive,POINT (-95.6216 51.0258)
YT-MINCAN-ea3ac9fd,Sherwood Copper Corporation,Capstone Mining Corporation,,,,,Minto,,Yukon,62.6167,-137.249,2007,2018,,,,,"Copper, Gold",,0,0,0,,,,Inactive,POINT (-137.249 62.6167)
NT-MINCAN-5bc1a041,De Beers Canada Inc.,,,,,,Snap Lake,,Northwest Territories,63.6027,-110.869,2007,2015,,,,,Diamond,,0,0,0,,,,Inactive,POINT (-110.869 63.6027)
ON-MINCAN-8e967a39,FNX Mining Company Inc.,KGHM Polska Miedz S.A.,,,,,Podolsky,,Ontario,46.7775,-80.8763,2008,2013,,,,,"Copper, Nickel, PM",,0,0,0,,,,Inactive,POINT (-80.8763 46.7775)
QC-MINCAN-44904232,Agnico-Eagle Mines Limited,,,,,,Goldex,,Quebec,48.0926,-77.8733,2008,2011,2013,open,,,"Gold, Silver",,0,0,0,,,,Active,POINT (-77.8733 48.0926)
QC-MINCAN-d12139ec,Alexis Minerals Corporation,QMX Gold Corporation,,,,,Lac Herbin,,Quebec,48.1361,-77.6539,2008,2015,,,,,"Gold, Silver",,0,0,0,,,,Inactive,POINT (-77.6539 48.1361)
NL-MINCAN-dea6d820,Beaver Brook Antimony Mine Inc.,China Minmetals Rare Earth Group Co. Ltd.,,,,,Beaver Brook,,Newfoundland-and-Labrador,48.4253,-55.1126,2008,2013,2021,open,,,Antimony,,0,0,0,,,,Active,POINT (-55.1126 48.4253)
QC-MINCAN-5bfa990a,Metanor Resources Inc.,,,,,,Barry,,Quebec,48.9903,-75.766,2008,open,,,,,"Gold, Silver",,0,0,0,,,,Active,POINT (-75.766 48.9903)
BC-MINCAN-a5692378,Merit Mining Corp.,,,,,,Lexington-Grenoble,,British Columbia,49.0088,-118.614,2008,2008,,,,,"Copper, Gold",,0,0,0,,,,Inactive,POINT (-118.614 49.0088)
QC-MINCAN-8199a781,Xstrata Zinc Canada,Glencore plc,,,,,Perseverance,,Quebec,49.716,-77.7189,2008,2013,,,,,"Zinc, Copper, Gold, Silver",,0,0,0,,,,Inactive,POINT (-77.7189 49.716)
NL-MINCAN-64d7ea1b,Anaconda Mining Inc.,,,,,,Pine Cove,,Newfoundland-and-Labrador,49.9597,-56.1295,2008,open,,,,,Gold,,0,0,0,,,,Active,POINT (-56.1295 49.9597)
ON-MINCAN-f10eba9d,De Beers Canada Inc.,,,,,,Victor,,Ontario,52.8206,-83.8817,2008,2019,,,,,Diamond,,0,0,0,,,,Inactive,POINT (-83.8817 52.8206)
QC-MINCAN-6bc0e9f8,Agnico-Eagle Mines Limited,,,,,,Lapa,,Quebec,48.22957,-78.288149,2009,2018,,,,,Gold,,0,0,0,,,,Inactive,POINT (-78.288149 48.22957)
ON-MINCAN-e6b5bc73,Liberty Mines Inc.,,,,,,McWatters,,Ontario,48.311227,-81.03661,2009,2012,,,,,Nickel,operation suspended in 2011 ,0,0,0,,,,Inactive,POINT (-81.03661 48.311227)
ON-MINCAN-019a0826,Apollo Gold Corporation,,,,,,Black Fox,,Ontario,48.534362,-80.340814,2009,open,,,,,Gold,,0,0,0,,,,Active,POINT (-80.340814 48.534362)
MB-MINCAN-364a9b59,San Gold Corporation,,,,,,Hinge,,Manitoba,51.0258,-95.6216,2009,2015,,,,,Gold,,0,0,0,,,,Inactive,POINT (-95.6216 51.0258)
QC-MINCAN-17238fd3,Champion Irons Ltd,Consolidated Thompson Iron Mines Ltd.,Cliffs Natural Resources Inc.,,,,Bloom Lake,,Quebec,52.84,-67.28,2009,2010,2015,2018,,,Iron,,0,0,0,,,,Inactive,POINT (-67.28 52.84)
MB-MINCAN-da9969c0,Crowflight Minerals Inc.,CaNickel Mining Limited,,,,,Bucko,,Manitoba,54.878,-98.6576,2009,2012,,,,,"Nickel, Copper, Cobalt, Platinum",,0,0,0,,,,Inactive,POINT (-98.6576 54.878)
ON-MINCAN-1fe3b507,URSA Major Minerals Inc.,Prophecy Platinum Corp.,,,,,Shakespeare,,Ontario,46.33417,-81.85944,2010,2012,,,,,"Nickel, Copper, Platinum, Gold, Cobalt",,0,0,0,,,,Inactive,POINT (-81.85944 46.33417)
ON-MINCAN-b4c53aa7,St. Andrew Goldfields Ltd.,,,,,,Hislop,,Ontario,48.34389,-80.30611,2010,2014,,,,,Gold,,0,0,0,,,,Inactive,POINT (-80.30611 48.34389)
NU-MINCAN-1d9e43a7,Agnico-Eagle Mines Ltd.,,,,,,Meadowbank,,Nunavut,65.025,-96.04889,2010,open,,,,,Gold,,0,0,0,,,,Active,POINT (-96.04889 65.025)
QC-MINCAN-920ca787,Osisko Mining Corporation,,,,,,Canadian Malartic,,Quebec,48.129852,-78.100285,2011,open,,,,,"Gold, Silver",,0,0,0,,,,Active,POINT (-78.100285 48.129852)
ON-MINCAN-643672f4,Lake Shore Gold Corp.,,,,,,Timmins,,Ontario,48.383275,-81.549826,2011,open,,,,,Gold,,0,0,0,,,,Active,POINT (-81.549826 48.383275)
ON-MINCAN-72455d0c,Kirkland Lake Gold Ltd.,St. Andrew Goldfields Ltd.,,,,,Holloway-Holt,,Ontario,48.513,-79.74,2011,2020,,,,,Gold,This might be the merger of two mines,0,0,0,,,,Inactive,POINT (-79.74 48.513)
BC-MINCAN-3fa0299a,Bralorne Gold Mines Ltd.,,,,,,Bralorne-Pioneer,,British Columbia,50.777947,-122.821412,2011,2015,,,,,Gold,,0,0,0,,,,Inactive,POINT (-122.821412 50.777947)
NL-MINCAN-6068964d,Labrador Iron Mines Holdings Limited,,,,,,James,,Newfoundland-and-Labrador,54.781569,-66.865862,2011,2013,,,,,Iron,,0,0,0,,,,Inactive,POINT (-66.865862 54.781569)
SK-MINCAN-5ac4b2dd,Claude Resources Inc.,,,,,,Santoy 8,,Saskatchewan,55.66778,-103.414571,2011,open,,,,,Gold,,0,0,0,,,,Active,POINT (-103.414571 55.66778)
SK-MINCAN-4be6ab2e,Golden Band Resources Inc.,,,,,,Roy Lloyd/Bingo,,Saskatchewan,55.70167,-104.73361,2011,2014,,,,,Gold,,0,0,0,,,,Inactive,POINT (-104.73361 55.70167)
YT-MINCAN-75146390,Yukon Zinc Corp.,,,,,,Wolverine,,Yukon,61.41667,-130.1,2011,2015,,,,,"Zinc, Silver, Copper, Lead, Gold",,0,0,0,,,,Inactive,POINT (-130.1 61.41667)
YT-MINCAN-dee2286d,Alexco Resource Corp.,,,,,,Bellekeno,,Yukon,63.905576,-135.258268,2011,2013,,,,,"Gold, Silver, Lead, Zinc",,0,0,0,,,,Inactive,POINT (-135.258268 63.905576)
QC-MINCAN-fb453944,Rocmec Mining Corporation,,,,,,Rocmec 1,,Quebec,48.245,-79.503,2012,open,,,,,Gold,,0,0,0,,,,Active,POINT (-79.503 48.245)
BC-MINCAN-72fabc94,New Gold Inc.,,,,,,New Afton,,British Columbia,50.661,-120.514,2012,open,,,,,"Gold, Silver, Copper",,0,0,0,,,,Active,POINT (-120.514 50.661)
ON-MINCAN-4e67cbbc,Canadian Wollastonite,,,,,,St. Lawrence,,Ontario,44.460417,-76.250411,2013,open,,,,,Wollastonite,,0,0,0,,,,Active,POINT (-76.250411 44.460417)
QC-MINCAN-aee06f17,Richmont Mines Inc.,,,,,,Monique,,Quebec,48.188,-77.445,2013,2015,,,,,Gold,,0,0,0,,,,Inactive,POINT (-77.445 48.188)
QC-MINCAN-658e2488,Metanor Resources Inc.,Bonterra Resources Inc.,,,,,Bachelor Lake,,Quebec,49.4958,-76.143,2013,2018,,,,,"Gold, Silver",,0,0,0,,,,Inactive,POINT (-76.143 49.4958)
QC-MINCAN-498ff152,Glencore plc,,,,,,Bracemac-McLeod,,Quebec,49.679,-77.666,2013,open,,,,,"Zinc, Copper, Gold, Silver",,0,0,0,,,,Active,POINT (-77.666 49.679)
ON-MINCAN-6316d452,Detour Gold Corporation,,,,,,Detour Lake,,Ontario,50.014,-79.71,2013,open,,,,,Gold,,0,0,0,,,,Active,POINT (-79.71 50.014)
MB-MINCAN-15965632,HudBay Minerals Inc.,,,,,,Lalor Lake,,Manitoba,54.862,-100.155,2013,open,,,,,"Copper, Zinc, Gold, Silver",,0,0,0,,,,Active,POINT (-100.155 54.862)
ON-MINCAN-07ece30d,Vale,,,,,,Totten,,Ontario,46.381174,-81.454839,2014,open,,,,,"Nickel, Copper, Cobalt, Platinum, Gold",,0,0,0,,,,Active,POINT (-81.454839 46.381174)
ON-MINCAN-b9448fc0,Wallbridge Mining Company Limited,,,,,,Broken Hammer,,Ontario,46.764596,-81.034405,2014,open,,,,,"Copper, Nickel, Platinum",,0,0,0,,,,Active,POINT (-81.034405 46.764596)
QC-MINCAN-efafa693,IAMGOLD Corporation,,,,,,Westwood,,Quebec,48.256,-78.502,2014,open,,,,,"Gold, Copper, Silver, Zinc",,0,0,0,,,,Active,POINT (-78.502 48.256)
MB-MINCAN-09a8559a,HudBay Minerals Inc.,,,,,,Reed,,Manitoba,54.569,-100.669,2014,2018,,,,,"Copper, Zinc, Gold, Silver",,0,0,0,,,,Inactive,POINT (-100.669 54.569)
BC-MINCAN-4eaf1f96,Thompson Creek Mining Limited,,,,,,Mt Milligan,,British Columbia,55.118,-124.031,2014,open,,,,,"Copper, Gold",,0,0,0,,,,Active,POINT (-124.031 55.118)
NU-MINCAN-d93a2c54,ArcelorMittal Mines Canada Inc.,,,,,,Mary River,,Nunavut,71.340446,-71.340446,2014,open,,,,,Iron,,0,0,0,,,,Active,POINT (-71.340446 71.340446)
ON-MINCAN-243ee459,St Andrew Goldfields Ltd.,Kirkland Lake Gold Ltd.,,,,,Taylor,,Ontario,48.56667,-80.61333,2015,2020,,,,,Gold,,0,0,0,,,,Inactive,POINT (-80.61333 48.56667)
QC-MINCAN-1c16c912,Goldcorp Inc.,,,,,,Éléonore,,Quebec,52.69889,-76.08667,2015,open,,,,,Gold,,0,0,0,,,,Active,POINT (-76.08667 52.69889)
BC-MINCAN-c6f7b41b,Banks Island Gold Ltd.,,,,,,Yellow Giant,,British Columbia,53.36257,-130.12352,2015,2015,,,,,Gold,,0,0,0,,,,Inactive,POINT (-130.12352 53.36257)
BC-MINCAN-12c1ca6d,Pine Valley Mining Corporation,Western Coal Corporation,Conuma Coal Resources Ltd.,"Walter Energy, Inc.",Conuma Coal Resources Ltd.,,Willow Creek,Tumbler Ridge,British Columbia,55.619443,-122.22194,2015,2010,2014,2018,open,,Coal,,0,0,0,,,,Inactive,POINT (-122.22194 55.619443)
BC-MINCAN-496a2682,Imperial Metals Corporation,,,,,,Red Chris,,British Columbia,57.7,-129.78333,2015,open,,,,,"Gold, Silver, Copper",,0,0,0,,,,Active,POINT (-129.78333 57.7)
SK-MINCAN-7501c939,Cameco Corporation,,,,,,Cigar Lake,,Saskatchewan,58.06819,-104.54123,2015,open,,,,,Uranium,,0,0,0,,,,Active,POINT (-104.54123 58.06819)
QC-MINCAN-72adc1b6,Stornoway Diamond Corporation,,,,,,Renard,,Quebec,52.813913,-72.190579,2016,open,,,,,Diamond,,0,0,0,,,,Active,POINT (-72.190579 52.813913)
BC-MINCAN-c26265bf,Cœur Mining,,,,,,Silvertip,,British Columbia,59.92,-130.34,2016,2020,,,,,"Silver, Zinc, Lead, Gold",,0,0,0,,,,Inactive,POINT (-130.34 59.92)
NS-MINCAN-59931ace,Aurelius Minerals Inc.,Maritime Dufferin Gold Corp.,,,,,Dufferin,,Nova Scotia,44.9719,-62.3929,2017,2019,,,,,Gold,,0,0,0,,,,Inactive,POINT (-62.3929 44.9719)
NS-MINCAN-21b5fbce,Atlantic Gold Corp.,,,,,,Moose River Consolidated,,Nova Scotia,44.98243,-62.94292,2017,open,,,,,Gold,,0,0,0,,,,Active,POINT (-62.94292 44.98243)
NS-MINCAN-3a1569cf,Kameron Collieries ULC,,,,,,Donkin,,Nova Scotia,46.178108,-59.825861,2017,2020,,,,,Coal,,0,0,0,,,,Inactive,POINT (-59.825861 46.178108)
ON-MINCAN-ddd10f1c,New Gold Inc.,,,,,,Rainy River,,Ontario,48.833,-94.012,2017,open,,,,,"Gold, Silver, Nickel, Copper, Cobalt",,0,0,0,,,,Active,POINT (-94.012 48.833)
SK-MINCAN-de82f057,K+S Potash Canada,,,,,,Bethune,,Saskatchewan,50.62917,-105.26167,2017,open,,,,,Potash,,0,0,0,,,,Active,POINT (-105.26167 50.62917)
BC-MINCAN-492cfeba,Pretrium Resources Inc.,,,,,,Brucejack,,British Columbia,56.47554,-130.21783,2017,open,,,,,"Gold, Silver",,0,0,0,,,,Active,POINT (-130.21783 56.47554)
NT-MINCAN-ecb9b239,De Beers Canada Inc.,,,,,,Gahcho Kué,,Northwest Territories,63.44528,-109.21194,2017,open,,,,,Diamond,,0,0,0,,,,Active,POINT (-109.21194 63.44528)
NU-MINCAN-c890ff47,TMAC Resources Inc.,,,,,,Hope Bay,,Nunavut,68.137186,-106.612652,2017,open,,,,,Gold,,0,0,0,,,,Active,POINT (-106.612652 68.137186)
NL-MINCAN-f672e15e,Canada Fluorspar (NL) Inc.,,,,,,St. Lawrence,,Newfoundland-and-Labrador,46.9038,-55.4003,2018,open,,,,,Fluorspar,,0,0,0,,,,Active,POINT (-55.4003 46.9038)
QC-MINCAN-775312a1,Agnico Eagle Mines Limited,,,,,,LaRonde - Zone 5,,Quebec,48.2516,-78.451722,2018,open,,,,,Gold,,0,0,0,,,,Active,POINT (-78.451722 48.2516)
QC-MINCAN-1ff82b36,Contemporary Amperex Technology Co. Limited (CATL),,,,,,North American Lithium,,Quebec,48.41154,-77.80934,2018,2019,,,,,Lithium,,0,0,0,,,,Inactive,POINT (-77.80934 48.41154)
ON-MINCAN-079b81a1,Harte Gold Corp.,,,,,,Sugar Zone,,Ontario,48.80496,-85.00401,2018,open,,,,,Gold,,0,0,0,,,,Active,POINT (-85.00401 48.80496)
BC-MINCAN-5f70024e,Cœur Mining,,,,,,"
Silvertip",,British Columbia,59.92,-130.34,2018,open,,,,,"Silver, Zinc, Lead, Gold",,0,0,0,,,,Active,POINT (-130.34 59.92)
ON-MINCAN-b94b1f25,Newmont Goldcorp Corp.,,,,,,Borden,,Ontario,47.871883,-83.260981,2019,open,,,,,Gold,,0,0,0,,,,Active,POINT (-83.260981 47.871883)
ON-MINCAN-b089dc5f,Evolution Mining Ltd.,,,,,,Cochenour,,Ontario,51.076504,-93.808445,2019,open,,,,,Gold,,0,0,0,,,,Active,POINT (-93.808445 51.076504)
QC-MINCAN-a6cbac08,Tata Steel Minerals Canada Limited,,,,,,DSO (Goodwood),,Quebec,55.09939,-67.34778,2019,open,,,,,Iron,,0,0,0,,,,Active,POINT (-67.34778 55.09939)
NU-MINCAN-6ca88e12,Agnico Eagle Mines Limited,,,,,,Meliadine,,Nunavut,63.031529,-92.220206,2019,open,,,,,Gold,,0,0,0,,,,Active,POINT (-92.220206 63.031529)
YT-MINCAN-8fada64a,Victoria Gold Corporation,,,,,,Eagle (Dublin Gulch),,Yukon,64.0322,-135.8456,2019,open,,,,,Gold,,0,0,0,,,,Active,POINT (-135.8456 64.0322)
NU-MINCAN-4efe1cae,Agnico Eagle Mines Limited,,,,,,Amaruq,,Nunavut,65.415,-96.697,2019,open,,,,,Gold,,0,0,0,,,,Active,POINT (-96.697 65.415)
NB-MINCAN-56d13b79,Hammond River Holdings Ltd.,,,,,,Upham East,,New Brunswick,45.48334,-65.63127,2020,open,,,,,Gypsum,,0,0,0,,,,Active,POINT (-65.63127 45.48334)
NB-MINCAN-ec0f4f8c,Graymont Inc.,,,,,,Springhill,,New Brunswick,46.0021,-65.3719,2021,open,,,,,"Limestone, lime",,0,0,0,,,,Active,POINT (-65.3719 46.0021)
ON-MINCAN-66fd9252,Pure Gold Mining Inc.,,,,,,PureGold,,Ontario,50.96932,-93.93847,2021,open,,,,,Gold,,0,0,0,,,,Active,POINT (-93.93847 50.96932)
ON-MINCAN-a1e5eaa5,Canada Talc Industries Ltd. ,CanadaTalc United,"Highwood Resources Ltd, CanadaTalc Division",,,,Henderson ,Madoc (Havelock),Ontario,44.50205,-77.45374,1896,2010,,,,,Talc,,0,0,0,,,,Inactive,POINT (-77.45374 44.50205)
BC-MINCAN-6b9c35f6,Bralorne Pioneer Mines Ltd.,Bralorne Mines Ltd. ,Bralorne Can-Fer Resources Ltd.,,,,Bralorne Division,Bralorne ,British Columbia,50.777777,-122.82222,1900,2014,,,,,"Gold, Silver, Lead, Zinc, Copper, Tungsten",,0,0,0,,,,Inactive,POINT (-122.82222 50.777777)
NS-MINCAN-1a236f18,Dominion Steel and Coal Corp. Ltd.,,,,,,Old Sydney Collieries Division,,Nova Scotia,46.2891908688,-60.2703601398,1901,1975,,,,,Coal,"Establishment of Dominion Iron and Steel, Sydney, Nova Scotia.  1901",0,0,0,,,,Inactive,POINT (-60.2703601398 46.2891908688)
ZZ-MINCAN-7ff0442a,Phoenix Minerals Corporation and Newfoundland Barite Ltd.,,,,,,Collier Point,Trinity Bay,Newfoundland-and-Labrador,47.591257938665,-53.6901133129545,1902,1980,1998,1998,,,Barite,18 workers,0,0,0,,,,Inactive,POINT (-53.6901133129545 47.591257938665)
ON-MINCAN-aa187be6,Coldstream Copper Mines Ltd.,North Coldstream,,,,,,,Ontario,48.60196,-90.58427,1902,1967,,,,,Iron ore,,0,0,0,,,,Inactive,POINT (-90.58427 48.60196)
BC-MINCAN-363dab48,Ottawa Silver Mines Ltd. ,Slocan Ottawa Mines Ltd. ,,,,,,,British Columbia,49.784999,-117.39611,1903,1952,,,,,"Silver, Lead, Zinc, Gold, Copper",,0,0,0,,,,Inactive,POINT (-117.39611 49.784999)
ON-MINCAN-bcf440be,Langis Silver and Cobalt Mining Co. Ltd. ,,,,,,,,Ontario,47.58135,-79.58006,1908,1960,,,,,Silver,,0,0,0,,,,Inactive,POINT (-79.58006 47.58135)
BC-MINCAN-fe77153d,Bralorne Pioneer Mines Ltd. ,Pioneer Gold Mines of B.C. Ltd. ,,,,,Pioneer Division,,British Columbia,50.761111,-122.78055,1908,1983,,,,,"Gold, Silver, Lead, Zinc, Copper, Antimony, Tungsten",,0,0,0,,,,Inactive,POINT (-122.78055 50.761111)
NS-MINCAN-78389e42,Domtar Construction Materials Ltd.,McKay Settlement,"Georgia-Pacific Canada, Inc. (McKay Settlement)",,,,Gypsum Division,Windsor ,Nova Scotia,45.781316,-64.2413709216459,1909,1962,,,,,Gypsum,,0,0,0,,,,Inactive,POINT (-64.2413709216459 45.781316)
ON-MINCAN-d4fad89a,Silver-Miller Mines Ltd. ,,,,,,,Cobalt ,Ontario,47.36615,-79.63109,1910,1967,,,,,Silver,,0,0,0,,,,Inactive,POINT (-79.63109 47.36615)
ON-MINCAN-b7949b70,Hollinger Consolidated Gold Mines Ltd. ,,,,,,,,Ontario,48.023,-82.22912,1910,1968,,,,,Gold,,0,0,0,,,,Inactive,POINT (-82.22912 48.023)
AB-MINCAN-e85596cc,Brazeau Collieries Ltd. ,,,,,,,,Alberta,52.4575781635,-116.0846652,1910,1955,,,,,Coal,,0,0,0,,,,Inactive,POINT (-116.0846652 52.4575781635)
ON-MINCAN-6a4014e2,Royal Oak Mines Inc.,Goldcorp Inc.,"Holt-McDermott, Macassa Mines and Lake Shore Tailings",Giant Yellowknife Mines Ltd.,,,Pamour,Timmins,Ontario,48.52273,-81.11502,1911,2009,,,,,Gold,,0,0,0,,,,Inactive,POINT (-81.11502 48.52273)
BC-MINCAN-43127ec6,Cominco Ltd. ,"Consolidated Mining and Smelting Co. of Canada Ltd., The (H.B. Mine) ",,,,,H.B.,Salmo,British Columbia,49.152222,-117.19972,1912,1978,,,,,"Lead, Zinc, Silver, Cadmium, Copper, Gold, Talc",,0,0,0,,,,Inactive,POINT (-117.19972 49.152222)
ON-MINCAN-811a3235,"Teck-Hughes Gold Mines Ltd., The ",Lamaque Mining Co. Ltd.,,,,,Teck-Hughes,,Ontario,48.14722,-80.05266,1913,1968,,,,,Gold,,0,0,0,,,,Inactive,POINT (-80.05266 48.14722)
ON-MINCAN-11ba38ba,Wright-Hargreaves Mines Ltd. ,,,,,,,,Ontario,48.15254,-80.03634,1913,1962,,,,,Gold,,0,0,0,,,,Inactive,POINT (-80.03634 48.15254)
ON-MINCAN-14975e40,Algoma Ore Properties Ltd,,,,,,George W. MacLeod,Wawa ,Ontario,48.0256,-84.73799,1914,1998,,,,,Iron,,0,0,0,,,,Inactive,POINT (-84.73799 48.0256)
AB-MINCAN-0f5767bc,Manalta Coal Ltd.,,,,,,Montgomery,Hanna,Alberta,51.476895456,-111.707653582999,1914,1999,,,,,Coal,,0,0,0,,,,Inactive,POINT (-111.707653582999 51.476895456)
BC-MINCAN-ee8be8d0,Trident Resources Inc.,,,,,,,Atlin,British Columbia,59.735833,-133.52166,1916,1988,,,,,"Silver, Lead, Zinc, Gold, Copper, Cadmium, Molybdenum, Tin",,0,0,0,,,,Inactive,POINT (-133.52166 59.735833)
ON-MINCAN-415de4a6,Lake Shore Mines Ltd. ,Kinross Gold Corporation,Lac Minerals Ltd.,,,,Lake Shore Tailings,Kickland Lake,Ontario,48.11871,-80.0099,1918,1964,,,,,Gold,"The closure of the mine once known as the 'Jewel box of North America' in 1965 was the result of a number of factors including a declining ore reserve picture, unfruitful exploration, increased water inflow into the workings from other closed mines exceeding pump capacity and unstable workings at depth,",0,0,0,,,,Inactive,POINT (-80.0099 48.11871)
SK-MINCAN-0d96824a,Saskatchewan Minerals (Sodium Sulphate Division) ,,,,,,,Bishopric ,Saskatchewan,50.009697,-105.779458837696,1921,1984,,,,,Sodium Sulphate,,0,0,0,,,,Inactive,POINT (-105.779458837696 50.009697)
ON-MINCAN-dc624580,Queenston Gold Mines Limited,,,,,,McBean,Dobie ,Ontario,48.12537,-79.81791,1927,1988,,,,,Gold,,0,0,0,,,,Inactive,POINT (-79.81791 48.12537)
ON-MINCAN-20903670,Selco Mining Corporation Ltd. ,,,,,,,Uchi Lake ,Ontario,51.11175,-92.67899,1927,1979,,,,,Zinc,,0,0,0,,,,Inactive,POINT (-92.67899 51.11175)
ON-MINCAN-597fb44c,Upper Canada Mines Ltd. ,,,,,,,Dobie ,Ontario,48.14179,-79.8233,1928,1971,,,,,Gold,,0,0,0,,,,Inactive,POINT (-79.8233 48.14179)
SK-MINCAN-0b9eff5f,Ormiston Mining & Smelting Co. Ltd. ,,,,,,Horseshoe Lake or Osmiston,Ormiston ,Saskatchewan,49.719457,-105.355145320785,1930,1999,,,,,Sodium Sulphate,,0,0,0,,,,Inactive,POINT (-105.355145320785 49.719457)
SK-MINCAN-a056ea87,Midwest Chemicals Ltd.,Millar Western Industries,,,,,Whiteshore Lake,Palo ,Saskatchewan,52.121963,-108.286850063219,1934,2008,,,,,Sodium Sulphate,,0,0,0,,,,Inactive,POINT (-108.286850063219 52.121963)
NT-MINCAN-5facb408,"Consolidated Mining and Smelting Co. of Canada Ltd., The (Cominco Ltd.)",Nerco Minerals Co.,,,,,Con and Rycons,Yellowknife ,Northwest Territories,62.43333333333333,-114.36666666666666,1938,2003,,,,,Gold,"(source1 (Silke),p.112): 
The Con Mine first achieved gold production in 1938 and was the founding industry of Yellowknife, NWT, the city that grew up nearby. Con closed in 2003 and the mine is now under remediation. 
By the fall of 1943, when the mine shutdown for the duration of World War II, the mine employed 170 people, 80 of which were married, 15 women, and 15 natives. There were also 40 children residing in the camp. 
Con Mine became unionized in 1947 when the Local 802 of the International Union of Mine, Mill and Smelter
Workers became organized. Con management disputed the organization, citing unreasonable wage demands during a difficult period for the mine 
Total employment at Con Mine during the late 1950s was approximately 190 (mine records).
In August 2003 it was announced that mining operations were phasing down to a November closure. On October 24th 2003, a first batch of layoffs resulted in a 67 man reduction in the workforce. Ninety-four men were laid off on November 28th closure, leaving about 40 to 50 men to stay and continue with surface and milling operations. (Miramar Mining Corp. Ltd. Annual Report, 2003)",1,0,0,,,,Inactive,POINT (-114.36666666666666 62.43333333333333)
BC-MINCAN-b7530dbc,Mountain Minerals Ltd.,Mountain Mineral Co. Ltd.,,,,,,Parson/Invermere,British Columbia,51.025277,-116.65083,1944,1992,,,,,Barite,,0,0,0,,,,Inactive,POINT (-116.65083 51.025277)
ON-MINCAN-3c0bc175,New Ryan Lake Mines Ltd.,,,,,,,,Ontario,47.97179,-80.69617,1948,1964,,,,,Copper,,0,0,0,,,,Inactive,POINT (-80.69617 47.97179)
SK-MINCAN-ed17fb21,Saskatchewan Minerals (Sodium Sulphate Division) ,Kam-Kotia Mines Ltd. ,Dickenson Mines Ltd.,,,,,Fox Valley,Saskatchewan,50.460916,-106.662494110019,1948,open,,,,,Sodium Sulphate,,0,0,0,,,,Active,POINT (-106.662494110019 50.460916)
MB-MINCAN-0beaa474,Cuprus Mines Ltd,,,,,,,,Manitoba,54.72055555555556,-101.71083333333334,1948,1954,,,,,"Copper, Zinc, Gold, Silver",,0,0,0,,,,Inactive,POINT (-101.71083333333334 54.72055555555556)
BC-MINCAN-3d344cc8,"Argonaut Mining Co. Ltd., The",Utah Co. of the Americas,,,,,Argonault Division,,British Columbia,49.862222,-125.54583,1951,1956,,,,,"Iron, Limestone, Garnet, Magnetite",,0,0,0,,,,Inactive,POINT (-125.54583 49.862222)
NL-MINCAN-6e231a28,Flintkote Co. Of Canada Ltd.,Domtar Inc.,,,,,Flat Bay,St. Georges,Newfoundland-and-Labrador,48.3831965835795,-58.5605861732249,1952,2019,,,,,Gypsum,"60 workers (1988-1994)- Domtar Inc. operated from 1988 through to 1994 and under its subsidiary, St. George's Gypsum Mines Inc. form 1988-1990. Estimated annual employment was 60 people. The mine, which was located in Flat Bay, produced gypsum.",0,0,0,,,,Inactive,POINT (-58.5605861732249 48.3831965835795)
ON-MINCAN-89ffefd0,Canadian Dyno Mines Ltd.,,,,,,Dyno,,Ontario,44.95006,-78.09776,1955,1960,,,,,Uranium,,0,0,0,,,,Inactive,POINT (-78.09776 44.95006)
BC-MINCAN-b2386f8b,Howe Sound Co. Ltd.,Anaconda Co. (Canada) Ltd.,,,,,,Britannia Beach ,British Columbia,49.554722,-123.40083,1955,1963,,,,,"Slate, Flagstone, Dimension Stone, Building Stone",,0,0,0,,,,Inactive,POINT (-123.40083 49.554722)
SK-MINCAN-16ae1a37,Consolidated Nicholson Mines Ltd.,,,,,,,,Saskatchewan,59.457769,-108.432228306277,1955,1959,,,,,Uranium,,0,0,0,,,,Inactive,POINT (-108.432228306277 59.457769)
ON-MINCAN-38ad72cf,Geco Mines Ltd. ,Noranda Mines Ltd.,,,,,Geco,Manitouwadge ,Ontario,49.15576,-85.79033,1957,1957,,,,,Zinc,,0,0,0,,,,Inactive,POINT (-85.79033 49.15576)
AB-MINCAN-c49749e0,Coleman Collieries Ltd. ,,,,,,,Coleman,Alberta,49.8076740233999,-114.524810615999,1957,1981,,,,,Coal,,0,0,0,,,,Inactive,POINT (-114.524810615999 49.8076740233999)
MB-MINCAN-32193179,"International Nickel Co. of Canada Ltd., The ",Inco,,,,,Thompson,Thompson ,Manitoba,55.7186111111111,-97.85388888888887,1957,1982,,,,,"Nickel, Copper, Cobalt, Gold, Silver, Platinum",,0,0,0,,,,Inactive,POINT (-97.85388888888887 55.7186111111111)
ON-MINCAN-442661ec,Rio Algom Mines Ltd. ,Stanleigh Uranium Mines Ltd.,Buckles Algoma Uranium Mines Limited,,,,Stanleigh,Elliot Lake ,Ontario,46.413519,-82.63735,1958,1961,1983,1996,,,Uranium,Abandoned : The site has been rehabilitated and is currently undergoing environmental monitoring.,0,0,0,,,,Inactive,POINT (-82.63735 46.413519)
BC-MINCAN-f52b7867,Taurus Resources Ltd.,,,,,,,McDame Lake,British Columbia,59.274443,-129.68944,1960,1988,,,,,"Gold, Silver, Zinc, Copper",,0,0,0,,,,Inactive,POINT (-129.68944 59.274443)
BC-MINCAN-9d2e58f3,Mt. Washington Copper Co. Ltd.,,,,,,,,British Columbia,49.763333,-125.30222,1964,1966,,,,,"Copper, Gold, Silver, Arsenic, Molybdenum, Zinc, Lead",,0,0,0,,,,Inactive,POINT (-125.30222 49.763333)
BC-MINCAN-cc630399,Granduc Mines Ltd. ,Newmont Mines Ltd.,Canada Wide Mines Ltd.,,,,,Stewart ,British Columbia,56.211111,-130.34499,1964,1984,,,,,"Copper, Silver, Gold, Lead, Zinc, Cobalt",,0,0,0,,,,Inactive,POINT (-130.34499 56.211111)
NT-MINCAN-bdbfb589,Tundra Gold Mines Ltd,,,,,,,,Northwest Territories,64.0375,-111.17916666666667,1964,1968,,,,,Gold,"The site was completely remediation by a government-funded program in the spring and summer of 2007. 
The camp consisted of two large buildings making up the accommodation complex. The 2-story bunkhouse had room for 62 single men, plus a small hospital, laundromat, and four staff residences for married couples. The Personal Services Building contained cookery, commissary, recreation hall, gymnasium, staff quarters, and library. The two camp buildings were connected by a short arctic-corridor, and the rest of the buildings onsite were connected by rope (life-lines) so that men would not get lost in blizzards walking to work. The mine manager had his own residence on site, and in 1964-1965 trailer units were brought in on winter road to provide additional family housing. In 1965, there were eight families residing on site. A crew of about 100 to 120 persons worked on the site. Jack Boulding was mine manager at the start of production, but was forced to retire in May 1965 due to illness. Len Dixon replaced him as manager at Tundra Mine"" (Byrne et al., 1964 cited by source1 (Silke), p.493)
 ""1968 Closure Worsening economic conditions in late 1967 convinced company officials that the Tundra Mine could no longer operate profitably. Increased costs, depressed gold market, and operational handicaps were the primary factors. The mine was closed in January 1968. On January 6th 1968 the last ore was hoisted, and the mill circuit was cleaned out to recover any remaining gold values. Most usable equipment was sent to Discovery Mine over the winter road. About 5,000 tons of broken ore remained underground, considered too low-grade for treatment in 1968. A substantial rise in the price of gold was considered necessary to reactivate the property"" (Tundra Gold Mines Ltd. Annual Report, 1968 cited by source1 (Silke), p.495)",1,0,0,,,,Inactive,POINT (-111.17916666666667 64.0375)
NT-MINCAN-af265c85,Echo Bay Mines Ltd. ,Cominco Limited (1933-1936),,,,,,Port Radium ,Northwest Territories,66.09583333333333,-117.99166666666667,1964,1974,,,,,"Silver, Copper","The mine was also in operation from 1934 to 1936. 
First underground exploration of the silver deposits occurred in the 1930s, and in 1964 the mine was brought into production. In 1976, the old Eldorado Mine was reopened and mined for its silver content when Echo Bay ores were depleted. Following the closure of the Port Radium operations in 1982, the Eldorado Mine and Echo Bay Mines were cleaned up.
CAUSE: Underground development on two adit levels began in 1933, but work ceased when the price of silver collapsed. The site remained closed until 1964 when Echo Bay Mines Limited reopened the mine workings. Silver and copper was produced from 1964 until 1976 when the orebody was depleted.
SCALE: A total of 103 persons were employed at the mine at that date. The camp consisted of two-story bunkhouses, cookery, and recreation hall, previously occupied by Eldorado Mine at Port Radium (The Western Miner, August 1968)",1,0,0,,,,Inactive,POINT (-117.99166666666667 66.09583333333333)
QC-MINCAN-018de99d,Baskatong Quartz Products Ltd.,,,,,,,Grand Remous ,Quebec,46.7846889273453,-75.8721907131585,1965,1977,,,,,Silica,,0,0,0,,,,Inactive,POINT (-75.8721907131585 46.7846889273453)
BC-MINCAN-ec499c88,Noranda Mines Ltd. ,Noranda Inc.,,,,,Boss Mountain Division,Hendrix Lake,British Columbia,52.096666,-120.9075,1965,1983,,,,,"Molybdenum, Copper, Zinc, Tungsten, Silver, Bismuth, Rhenium",,0,0,0,,,,Inactive,POINT (-120.9075 52.096666)
NB-MINCAN-3eceb06d,C.H. Nichols ,,,,,,,Minto ,New Brunswick,46.0759529153469,-66.0748074998611,1966,1969,,,,,Coal,Minor occurrence (limited to no exploration work),0,0,0,,,,Inactive,POINT (-66.0748074998611 46.0759529153469)
ON-MINCAN-95ce55bd,Big Nama Creek Mines Ltd.,,,,,,,Manitouwadge ,Ontario,49.16603,-85.84594,1967,1968,,,,,Copper,,0,0,0,,,,Inactive,POINT (-85.84594 49.16603)
NL-MINCAN-e253c8b8,Maritimes Mining Corp. Ltd.,First Maritime Mining Corp Ltd.,,,,,Gull Pond ,Gull Pond ,Newfoundland-and-Labrador,49.1984362553306,-56.1550163624812,1967,1971,,,,,"Copper, Iron, Zinc, Lead",205 workers,0,0,0,,,,Inactive,POINT (-56.1550163624812 49.1984362553306)
ON-MINCAN-e8b73215,Cliffs of Canada Ltd.,Dofasco Inc.,,,,,Shermans,Temagami,Ontario,47.06726,-79.84031,1968,1990,,,,,Iron,,0,0,0,,,,Inactive,POINT (-79.84031 47.06726)
SK-MINCAN-8907f04e,Alwinsal Potash of Canada Ltd.,Potash Corporation of Saskatchewan (Laniga Division),,,,,Lanigan Division,Lanigan ,Saskatchewan,51.849207,-105.196208125667,1968,open,,,,,Potash,,0,0,0,,,,Active,POINT (-105.196208125667 51.849207)
ON-MINCAN-01505dc1,"Jameland Mines Ltd., ",,,,,,,Timmins ,Ontario,48.57813,-81.58804,1969,1971,,,,,Copper,,0,0,0,,,,Inactive,POINT (-81.58804 48.57813)
SK-MINCAN-f137cb3d,Cominco Ltd.,,,,,,Vanscoy ,Vanscoy,Saskatchewan,52.004765,-107.073918307559,1969,open,,,,,Potash,,0,0,0,,,,Active,POINT (-107.073918307559 52.004765)
AB-MINCAN-fe842d8f,Alberta Sulphate Ltd.,,,,,,,Metiskow ,Alberta,52.4054231206526,-110.633142376522,1970,1991,,,,,Sodium Sulphate,,0,0,0,,,,Inactive,POINT (-110.633142376522 52.4054231206526)
MB-MINCAN-b13cb83b,Hudson Bay Mining and Smelting Co. Ltd. ,Dickstone Copper Mines Ltd.,,,,,,Morton Lake-Herb Lake ,Manitoba,54.855,-100.49,1970,1974,,,,,"Copper, Zinc",,0,0,0,,,,Inactive,POINT (-100.49 54.855)
YT-MINCAN-9cc98380,Venus Mines Ltd.,,,,,,Venus,Carcross,Yukon,60.025,-134.63472222222222,1970,1971,1980,1982,1980,1982,"Silver, Gold",The mine was also in operation from 1906 to 1911,0,0,0,,,,Inactive,POINT (-134.63472222222222 60.025)
ON-MINCAN-ba83ef77,Kaniche'e Mining Inc.,,,,,,Ajax or Kanichee,Temagami,Ontario,47.10385,-79.84555,1973,1976,,,,,Copper,"The Kanichee Mine zone has been explored and mined discontinuously from as early as 1910. During the 20th century, it operated and closed down at least three times, with the most recent being from 1973 to 1976. To date, the discontinuous operation of Kanichee Mine has produced 4.2 million pounds of metal.",0,0,0,,,,Inactive,POINT (-79.84555 47.10385)
NU-MINCAN-ba312ca2,Hope Bay Mines Ltd.,,,,,,Robert's Bay - Ida Bay Silvers,Melville Sound/ Cambridge Bay,Nunavut,68.15,-106.66666666666669,1973,1975,,,,,Silver,"85,000 oz silver (small producer).",0,0,0,,,,Inactive,POINT (-106.66666666666669 68.15)
ON-MINCAN-3e56cc70,Sill Lake Silver Mine Ltd.,,,,,,,Van Koughnet Twp.,Ontario,46.76779,-84.25805,1975,1985,,,,,Silver,,0,0,0,,,,Inactive,POINT (-84.25805 46.76779)
BC-MINCAN-f5fe836e,Continental Lime Ltd.,Graymont Western Canada Inc.,,,,,Marble Canyon or Pavilion Lake,Pavilion Lake,British Columbia,50.817777,-121.65444,1975,2000,2016,,,,"Limestone, Aggregate",,0,0,0,,,,Inactive,POINT (-121.65444 50.817777)
AB-MINCAN-6c602c5c,Smoky River Holdings Ltd.,,,,,,Smoky River,Grande Cache ,Alberta,54.028620246,-119.259533361999,1976,2000,,,,,Coal,,0,0,0,,,,Inactive,POINT (-119.259533361999 54.028620246)
NT-MINCAN-0000a6f9,Ulster Petroleums Ltd.,Echo Bay Mines Limited,Ulster Petroleums Limited,,,,Contact Lake,Port Radium ,Northwest Territories,65.97916666666667,-117.74583333333334,1977,1977,,,,,"Silver, Copper",small scale production,0,0,0,,,,Inactive,POINT (-117.74583333333334 65.97916666666667)
BC-MINCAN-fd12e185,Mountain Minerals Co. Ltd.,Highwood Resources Ltd.,,,,,Moberly,Golden,British Columbia,51.371666,-116.96472,1980,2009,,,,,Silica,,0,0,0,,,,Inactive,POINT (-116.96472 51.371666)
BC-MINCAN-5684f823,Mosquito Creek Gold Mining Corp. Ltd.,,,,,,,Wells,British Columbia,53.108333,-121.59722,1980,1987,,,,,"Gold, Silver, Lead, Zinc, Tungsten",,0,0,0,,,,Inactive,POINT (-121.59722 53.108333)
YT-MINCAN-126524e7,Klondike,Teck Corporation,,,,,Klondike Operations,Whitehorse,Yukon,60.736734030314,-135.083405076298,1980,1998,,,,,Gold,,0,0,0,,,,Inactive,POINT (-135.083405076298 60.736734030314)
MB-MINCAN-7b211ba7,Hudson Bay Mining and Smelting Co. Ltd.,,,,,,Trout Lake (Embury Lake),Flin Flon ,Manitoba,54.81944444444445,-101.8111111111111,1981,2002,2007,2012,,,"Copper, Zinc, Gold, Silver",,0,0,0,,,,Inactive,POINT (-101.8111111111111 54.81944444444445)
BC-MINCAN-d22850a8,Scottie Gold Mines Ltd.,,,,,,,Stewart,British Columbia,56.219721,-130.09527,1981,1984,,,,,"Gold, Silver, Copper, Zinc, Lead",,0,0,0,,,,Inactive,POINT (-130.09527 56.219721)
NU-MINCAN-072a06ea,Cominco Ltd.,Cominco Ltd. and Teck Corporation,,,,,Polaris,Little Cornwallis Island - Resolute Bay,Nunavut,75.39,-96.9,1981,2002,,,,,"Zinc, Lead","2.694 Mt zinc, 0.724 Mt lead from 20.107 Mt of processed ore (Harrison, 2016). Deposit grade of 13.4% Zn, 3.6% Pb (17.0% metal), depleted, mine site reclaimed (major producer).",0,0,0,,,,Inactive,POINT (-96.9 75.39)
BC-MINCAN-51ab7b5c,Carolin Mines Ltd.,,,,,,,Hope,British Columbia,49.508611,-121.28888,1982,1984,,,,,"Gold, Silver, Copper, Zinc",,0,0,0,,,,Inactive,POINT (-121.28888 49.508611)
NU-MINCAN-9e468db1,Echo Bay Mines Ltd.,,,,,,Lupin,Contwoyto Lake - Kugluktuk,Nunavut,65.75,-111.25,1982,2004,,,,,Gold,"3.36 Moz gold from 1.2 Mt of processed ore, mill-head grade of 8.9 g/t Au. Mine site and infrastructure still in place due to mining industry ownership since closure (major producer).",0,0,0,,,,Inactive,POINT (-111.25 65.75)
BC-MINCAN-e80dfbf3,Teck Corporation Ltd.,Teck-Bullmoose Coal Inc.,Teck Corporation Billiton Copper Holdings Inc. And Nissho Iwai Coal Development (Canada) Ltd.,,,,Bullmoose,Tumbler Ridge,British Columbia,55.118332,-121.49472,1983,2002,,,,,Coal,,0,0,0,,,,Inactive,POINT (-121.49472 55.118332)
BC-MINCAN-24d6ecdb,International Marble and Stone Co. Ltd.,,,,,,,Creston,British Columbia,49.0971410707532,-116.513092140917,1985,open,,,,,"Limestone, Talc",,0,0,0,,,,Active,POINT (-116.513092140917 49.0971410707532)
BC-MINCAN-73228b52,Blackdome mining Corp.,"Claimstaker Resources Ltd., MCM Minerals Ltd. And Petro Plus Inc.",,,,,Blackdome,Clinton,British Columbia,51.323888,-122.48999,1986,1990,,,,,"Gold, Silver, Copper, Lead, Zinc, Selenium",,0,0,0,,,,Inactive,POINT (-122.48999 51.323888)
MB-MINCAN-f18c77bd,Sherritt Gordon Mines Ltd. ,LynnGold Resources Inc.,,,,,MacLellan,Lynn Lake ,Manitoba,56.88527777777778,-100.93916666666668,1986,1989,,,,,"Gold, Silver",,0,0,0,,,,Inactive,POINT (-100.93916666666668 56.88527777777778)
MB-MINCAN-afd512eb,Pioneer Metals Corporation,,,,,,Puffy Lake,,Manitoba,55.03472222222222,-100.99166666666667,1987,1989,,,,,Gold,,0,0,0,,,,Inactive,POINT (-100.99166666666667 55.03472222222222)
BC-MINCAN-8f7f2876,Candorado Mines Ltd. ,,,,,,Hedley,Hedley,British Columbia,49.346666,-120.07583,1988,1993,,,,,"Gold, Silver",,0,0,0,,,,Inactive,POINT (-120.07583 49.346666)
BC-MINCAN-0133facf,Cheni Gold Mines Inc.,,,,,,,Lawyers Mine,British Columbia,57.338333,-127.18027,1989,1992,,,,,"Gold, Silver, Copper, Zinc, Lead",,0,0,0,,,,Inactive,POINT (-127.18027 57.338333)
NL-MINCAN-96e592ab,Richmont Mines Inc.,,,,,,Hammerdown,Baie Verte ,Newfoundland-and-Labrador,49.5528314121716,-56.2466780156429,2000,2004,,,,,"Gold, Silver",80 workers,0,0,0,,,,Inactive,POINT (-56.2466780156429 49.5528314121716)
BC-MINCAN-ae37ff3d,Western Canadian Coal Corporation,"Walter Energy, Inc.",Conuma Coal Resources Ltd.,,,,Dillon or Brule,Tumbler Ridge,British Columbia,55.386666,-121.81999,2004,2007,2014,2016,,,Coal,,0,0,0,,,,Inactive,POINT (-121.81999 55.386666)
SK-MINCAN-1e58c571,Duval Corp. of Canada,Potash Corporation of Saskatchewan Cory Ltd.,"Potash Corporation of Saskatchewan Inc., (Cory Division)",,,,Cory Division,Saskatoon ,Saskatchewan,52.089095,-106.866906072091,2005,open,,,,,Potash,,0,0,0,,,,Active,POINT (-106.866906072091 52.089095)
NL-MINCAN-d8d4cf69,Inco Limited,,,,,,Voisey's Bay,Voisey's Bay,Newfoundland-and-Labrador,56.3313442729352,-62.0970567185797,2005,open,,,,,"Nickel, Copper, Cobalt",,0,0,0,,,,Active,POINT (-62.0970567185797 56.3313442729352)
NU-MINCAN-958f6c12,Tahera Diamond Corp,,,,,,Jericho Diamond,Kugluktuk,Nunavut,65.99722222222222,-111.475,2006,2008,,,,,Diamond,"0.78 M carats of diamonds from 1.2 Mt @ 0.65 cpt from open pit to -100 m, sold for $95-$105/carat. Production figures returned 24% less grade and 31% less value than -280 m resource of 5.525 Mt @ 0.85 cpt valued at $145/carat. Open-pit and mine site rehabilitation performed by federal government (modest producer).",0,0,0,,,,Inactive,POINT (-111.475 65.99722222222222)
SK-MINCAN-5bb92fba,Saskatchewan Power Corp.,Luscar Ltd.,,,,,Poplar River,Coronach,Saskatchewan,49.089639,-105.451972557677,2011,open,,,,,Coal,,0,0,0,,,,Active,POINT (-105.451972557677 49.089639)
NB-MINCAN-91b6b11b,Burnt Hill Tungsten and Metallurgical Ltd. ,,,,,,,,New Brunswick,46.56722222,-66.81388889,1868,1956,,,,,"Tungsten, Molybdenum, Tin",,1,1,0,,,,Inactive,POINT (-66.81388889 46.56722222)
ON-MINCAN-e563e91d,"Canadian Salt Co. Ltd., The ",,,,,,,Windsor ,Ontario,42.28071,-83.08224,1893,open,,,,,Salt,This facility employs 110 and estimates their sales at $25–50 million a year.,1,1,0,,,,Active,POINT (-83.08224 42.28071)
YT-MINCAN-3681d037,Miller Creek Concessions,Miller Creek Placers,,,,,,Mayo,Yukon,63.5942722106275,-135.89756430813,1895,1953,,,,,Gold,about 125 workers,1,1,1,https://tile.loc.gov/storage-services/public/gdcmassbookdig/guidetoyukongold00wils/guidetoyukongold00wils.pdf,https://emrlibrary.gov.yk.ca/ygs/ebooks/yukon-mineral-industry-1941-59.pdf,https://publications.gc.ca/collections/collection_2015/aadnc-aandc/R71-9-1959-1-fra.pdf,Inactive,POINT (-135.89756430813 63.5942722106275)
ON-MINCAN-efa66873,Vale Canada Limited,,,,,,Frood or Stobie,,Ontario,46.5402,-80.9933,1900,2017,,,,,"Nickel, Copper, Cobalt, Platinum, Gold, Silver, Selenium, Tellurium",,1,1,1,https://www.cbc.ca/news/canada/sudbury/stobie-mine-demolition-1.5760846,https://www.mindat.org/loc-11253.html,,Inactive,POINT (-80.9933 46.5402)
MB-MINCAN-dbcb29d9,Brinco Mining Ltd.,San Antonio Gold Mines Ltd.,Harmony Gold (Canada) Inc.,,,,Rice Lake,Bissett,Manitoba,51.01777777777777,-95.6677777777778,1932,1968,1997,2015,,,Gold,,1,1,1,https://www.manitoba.ca/iem/min-ed/mbhistory/mininv/273.htm,,,Inactive,POINT (-95.6677777777778 51.01777777777777)
QC-MINCAN-cb0b6882,Lamaque Gold Mines Ltd.,Teck Corporation ,Century Mining Corporation,White Tiger Gold Ltd.,,,Lamarque,Bourlamaque ,Quebec,48.1005,-77.7594,1935,1985,2007,2008,2010,2012,Gold,"In the 1973's 900A Map, this mine is reported as Lamaque Mining Co. Ltd.",1,1,1,https://www.pc.gc.ca/apps/dfhd/page_nhs_eng.aspx?id=13338,https://depositum.uqat.ca/id/eprint/424/1/cahierhist6.pdf,,Inactive,POINT (-77.7594 48.1005)
ON-MINCAN-bb67ebd6,Teck-Corona Operating Corp.,Homestake Canada Inc. and Teck Corporation,Barrick Gold Corporation,Ardel Exploration,Teck Corp,,David Bell,Marathon ,Ontario,48.69583,-85.88293,1949,2014,,,,,Gold,,1,1,1,http://www.geologyontario.mndm.gov.on.ca/mndmfiles/mdi/data/records/MDI42C12NW00002.html,,,Inactive,POINT (-85.88293 48.69583)
