mincan_id,namemine,town,province,latitude,longitude,commodityall,information,mine_status,operation_periods,main_id
QC-MINCAN-a8c87336,,,Quebec,45.263786,-72.331764,"Copper, Gold, Silver",,Inactive,1866–1958,
BC-MINCAN-16652987,Spruce Creek,Atlin,British Columbia,59.38272,-133.27033,Gold,,Inactive,1909–1950; 1955–1989,
BC-MINCAN-d675705f,Wesfrob (Tasu),Moresby Island ,British Columbia,52.75834,-132.05,"Iron, Copper",,Inactive,1914–1983,
NS-MINCAN-ca20ef49,,,Nova Scotia,45.5502192021,-62.5667798111,Coal,The currently entered coordinates are for the museum (see link attached),Inactive,1918–1966,
QC-MINCAN-d1e8b6b1,Horne,Noranda ,Quebec,48.25427,-79.01128,"Copper, Gold, Silver, Selenium, Tellurium, Pyrite ","Alternative names: Horne Mine (1975) The mine is named after prospector Edmund Horne who first staked the property in 1920. The property was optioned in 1922 to a syndicate that discovered a major copper-gold deposit and grew to become Noranda Mines Limited, later Noranda Inc., one of the world's premier mining and metals companies. The deposit in Precambrian Keewatin-type volcanic rocks is a classic example of a volcanogenic massive sulfide (VMS) deposit. The Horne mine exploited two major ore bodies called the Upper H and the Lower H. The ore averaged 2.22% Cu, 6.1 g/t Au and 13 g/t Ag. The mine closed in 1976,having produced 53.7 million tons of ore and recovering 260t of gold (11.6 million ounces) and 1.13Mt of copper. The Horne copper smelter built on the mine site in 1927 is still in operation. Mineral rights are currently (2015) owned by Falco Resources Ltd which is examining the feasibility of mining the Horne 5 copper-gold deposit below the old Horne mine workings.",Inactive,1927–1976,QC-MAIN-30c1828c
MB-MINCAN-aa9e8f78,Amaranth,Amaranth (Gypsumville),Manitoba,50.57638888888889,-98.73333333333332,Gypsum,,Inactive,1930–1964,
ON-MINCAN-6beb5f81,,Amherstburg,Ontario,42.0953894254532,-83.0876189665771,Salt,,Inactive,1936–2001,
ON-MINCAN-ccf2bf99,Haley,Haley ,Ontario,45.59888,-76.75171,Magnesium,,Active,1942–open,
BC-MINCAN-348cf0a2,Jersey Emerald,Salmo ,British Columbia,49.09861,-117.22111,"Lead, Zinc, Silver, Cadmium, Tungsten, Molybdenum, Gold, Bismuth",Bismuth,Inactive,1944–1970,
ON-MINCAN-d7542f2e,"Gersdorffite, AER, and  Kidd Copper or  Howland Pit",Worthington ,Ontario,46.39465,-81.43186,Nickel,The mine was also in operation from 1928 to 1939.,Inactive,1946–1958; 1965–1968; 1965–1968,
YT-MINCAN-d08b4ec8,,Galkeno Mine (MacLeod Mine),Yukon,63.92692,-135.36625,"Silver, Lead, Zinc, Cadmium","In 1946, Keno Hill Mines Ltd produced 50 tonnes of ore from the Galkeno mine. In 1948, Yukon Galena Mines Limited produced 36 tonnes. From 1953 to 1955, Makeno Mines Ltd produced 57,856 tonnes of ore. From 1956 to 1957, Galkeno Mines Ltd produced 47,015 tonnes and from 1959 to 1966, and again from 1978 to 1980, United Keno Hill Mines Ltd produced  26,382 tonnes of ore. Total production from the mine was 167,063 tonnes at a grade of 932.57 g/t silver (27.2 oz/t), 5.22% lead and 2.69% zinc to produce 141,338,613 grams of silver (4,544,142 oz), 7,909,476 kg of lead, 8,999,204 kg of zinc and 39,146 kg of cadmium. ////// closed between 2019 and 2020",Inactive,1946–1966; 1978–1980,
QC-MINCAN-ce6cfa6b,Donalda (Keralda),Rouyn-Noranda,Quebec,48.262661,-78.98609,"Gold, Copper, Zinc, Lead, Silver",,Inactive,1948–1956; 1970–1971; 1994–1995,
NB-MINCAN-de7ea077,,Minto ,New Brunswick,46.128611,-66.081944,Coal,,Inactive,1950–1971,
NB-MINCAN-63ccd128,Stratmat (Halfmile),,New Brunswick,47.30527778,-66.32,"Zinc, Lead, Copper, Gold, Silver",indigenous participation,Active,1951–open,
BC-MINCAN-3300fc60,Mountainrals Division,Brisco ,British Columbia,50.829721,-116.33055,Barite,"During the Second World War, barite was mined for use as ship ballast. After the war another use was found as an addition to mud for oil drilling. It was also used as a base for paint, and for the detection of ulcers under x-ray. In 1959, 9,320 tons of barite was crushed near the quarry and shipped for processing at Lethbridge. It was hard to quarry because of the way the faults ran, as well as the swelling and pinching of the barite ore body. As a result, the size of the quarry was restricted.",Inactive,1952–1977,
BC-MINCAN-e99e3800,,Cassiar ,British Columbia,59.324999,-129.81805,"Asbestos, Chrysotile, Jade/Nephrite, Gemstones, Magnesium",legal case,Inactive,1952–1998,
AB-MINCAN-d88f2e8b,,,Alberta,51.2783727017,-112.529346787999,Coal,"""Site Two is located approximately four miles to the south / south-east of the lower preparation plant. At the second site is the shaft and slope openings of Century Coals Ltd. begun in 1954. Structures include buildings (a machine shop apparently still in use) and the shaft hoist structure. A small amount of coal does presently find its way to local markets."" from https://hermis.alberta.ca/ARHP/Details.aspx?DeptID=2&ObjectID=HS%2033696",Inactive,1954–1965,
QC-MINCAN-d89f449a,,Norrie ,Quebec,48.137067,-77.97919,"Gold, Silver","Marban (formerly Marbenor) gold mines, northwestern Quebec",Inactive,1961–1974,
ON-MINCAN-9abb16ea,Calcite Division,Perth,Ontario,45.149689,-76.498756,Calcium Carbonate,,Active,1962–open,
QC-MINCAN-aea232ca,Cupra (Mine Cupra-d'Estrie),Stratford ,Quebec,45.771559,-71.309266,"Copper, Zinc, Silver, Gold, Lead, Cadmium, Bismuth",,Inactive,1965–1977,
YT-MINCAN-d7129b61,,Whitehorse ,Yukon,60.736734030314,-135.083405076298,Copper,The mine was also in operation from 1900 to 1920. //// 25 to 200 workers - unclear unclear see p.65 many fluctuation in employment Source 	ReSDA Atlas Yukon Mine summary cover.pdf (gov.yk.ca) https://emrlibrary.gov.yk.ca/ebooks/Northern%20Research%20Institute/ReSDA-Atlas-Yukon-Mine-summaries.pdf,Inactive,1967–1982,
QC-MINCAN-5d41ed28,Madeleine,Ste. Anne des Monts ,Quebec,49.0,-66.01667,Copper,,Inactive,1969–1976; 1979–1979,
MB-MINCAN-48d72465,Ruttan,Leaf Rapids,Manitoba,56.475,-99.63722222222223,"Copper, Zinc",,Inactive,1973–2001,
QC-MINCAN-06b1f129,Parent Mica Deposit,Suzor,Quebec,47.9384118261258,-74.6346024474106,Mica,"Changed name in Lacana Mines Inc. ""In late 1985, Lacana Mines Inc. of Toronto, Ontario, (now International Corona) purchased the Marietta Suzorite operation. In September 1994, Zemex Corp. of Toronto purchased the company from Whittaker Clark and Daniels of New Jersey. Zemex also controls the Feldspar Corporation in Spruce Pine, North Carolina. "" see p.13 ///////// Suzorite Mica products of Boucherville, Quebec, has maintained profits in the face of this growing competition. Seen as a strong cash generator, the company was purchased by Zemex Corporation from Lacana Inc. in 1993.18 Both of its previous owners (Marietta Resources and Lacana Petroleum) invested heavily in Suzorite's future. In 1985 CDN$14 million dollars was spent on facilities that ultimately produced delaminated HAR (high aspect ratio)mica grades for the plastics industry.19 With capital, proper technical expertise, and aggressive marketing its profitability can be maintained. With mica's use changing from that of a bulk filler to a functional filler, it is no longer subject to falling resin prices. Also, mica becomes a necessity rather than a mineral that can be substituted with cheaper alternatives. Lastly, mica is a necessity in most polypropylene applications.  Polypropylene is poised to dominate the resin market. In October of 1994, ""Modem Plastics  International"" reported that polypropylene is set to capture a large share of the resin market due to its low price. But perhaps the best attribute of polypropylene is its diversity of  applications (Roskill notes that in Europe polypropylene has the fastest growing resin market share). ",Active,1976–open,
QC-MINCAN-227d3d18,Charlevoix,Charlevoix (Saint-Urbain),Quebec,47.7499003009564,-70.6967107601304,Silica,,Active,1977–open,
QC-MINCAN-2d42f581,Bousquet (No. 1 and 2),Cadillac ,Quebec,48.253881,-78.452902,"Gold, Silver, Copper, Zinc",,Inactive,1978–2002,
AB-MINCAN-1f02a2f3,Coal Valley,Edson (Coal Valley),Alberta,53.0468889202999,-116.70986872,Coal,brief suspension of activities between 2020 and 2021,Active,1978–open,
QC-MINCAN-11bf4a1e,Doyon or Silverstack,Cadillac ,Quebec,48.2557,-78.519197,Gold,"Even more companies : Barrick Gold, Cambior, ...The Doyon site was the subject of more intense prospecting in the 1960’s by the prospector Arthur Doyon. In 1972, it became the co-property of Silverstack Mines Company Ltd and of SOQUEM, which carried out exploration works between 1972 and 1975. In 1977, Long Lac Mineral Exploration Ltd (Lac Minerals Ltd) took over Silverstack Mines Ltd, and a drilling survey of 120 holes brought the Doyon deposit into production in February 1980. In 1983, a surface exploration campaign led to the discovery of Doyon West Zones.
The Cadillac-Bousquet region in northwestern Québec has been a productive mining centre for over 100 years and still holds great potential. In 1972, it became the co-property of Silverstack Mines Company Ltd. and the Québec government controlled Soquem Inc., which carried out exploration between 1972 and 1975. In 1975 Long Lac Mineral Exploration Ltd (Lac Minerals Ltd), took over Silverstack’s interest. Commercial open pit mining began at the Doyon Mine in 1980, and while underground mining commenced in 1985, the full transition to a wholly underground operation was completed in early 1989. The Doyon Gold Mine has been a significant producer of gold for the past 30 years having produced over 5 million ounces of gold.
 
In 1986, Cambior Inc. acquired an initial 50% interest in the Doyon Gold Mine and 100% of the Mouska property in connection with the privatisation of most of Soquem’s assets. Cambior became the sole owner of the Doyon Gold Mine by acquiring the remaining 50% interest from Barrick Gold in 1998.
 
Underground exploration at Mouska began in October 1987, pre-production development followed in May 1990 and commercial production commenced in July 1991.  IAMGOLD acquired the Doyon Division including both the Doyon Gold Mine and Mouska Gold Mine through its merger with Cambior in November 2006.
 
The Doyon mine ended operations in December 2009. In the fourth quarter of 2009, the Company approved a program to extend the life of the Mouska Mine to early 2012, through the use of paste backfill produced from the Doyon paste plant.",Inactive,1980–2009,
ON-MINCAN-7b16c0c2,Kremzar ,,Ontario,51.05136,-94.24474,Gold,,Inactive,1981–1988,
ON-MINCAN-dbb37b4f,,Ingersoll,Ontario,43.0378437120556,-80.8841350608697,Lime,unclear ownership as for other Ingersoll entry,Inactive,1990–2000,
ON-MINCAN-bc53b407,Onaping/Craig,,Ontario,46.6441,-81.3669,"Nickel, Copper, Cobalt, Platinum, Gold, Silver, Selenium, Tellurium",,Inactive,1994–2009,
QC-MINCAN-888e6db5,Croinor,Val d'Or,Quebec,48.110195,-77.018181,Gold,p. 21 'history' https://assets.website-files.com/5787b0e39bdd7b7161e7fd98/5dcc7ee1547376573adff622_MQR_2019_AIF.pdf,Inactive,2004–2005,
SK-MINCAN-5cc72a2d,Vascoy (Rocanville Division),Vanscoy,Saskatchewan,52.01,-107.08,"Potash, Salt",,Active,1971–2014; 2015–open,
SK-MINCAN-281f0f90,McClean Lake,McMahon,Saskatchewan,58.261669,-103.803054822356,Uranium,,Inactive,1999–2010,
MB-MINCAN-741a8c99,,Bird River,Manitoba,50.469166666666666,-95.44555555555556,"Nickel, Copper",,Inactive,1922–1974,
MB-MINCAN-7761330d,Flin Flon,Flin Flon ,Manitoba,56.7545,-101.069493,"Copper, Zinc, Slerium, Tellerium, Gold",,Inactive,1929–1990,
NS-MINCAN-38a6ff45,Brookfield,Truro,Nova Scotia,45.272512,-63.2406018526383,"Barite, Barium, Siderite","Re-opening of barite mine by Nystone Chemicals, Brookfield, Nova Scotia",Inactive,1944–2008,
QC-MINCAN-178d9a5e,Icon Sullivan,Chibougamau ,Quebec,50.238014,-73.811065,"Copper, Silver, Zinc",,Inactive,1967–1976,
SK-MINCAN-167cf44a,,Alsask ,Saskatchewan,51.339285,-109.865144706772,Sodium Sulphate,,Inactive,1967–1971,
SK-MINCAN-a2ba0470,Hanson Lake,Hanson Lake ,Saskatchewan,54.6749965402056,-102.849441921105,"Zinc, Lead, Copper, Silver",,Inactive,1967–1969,
BC-MINCAN-3d2c5b89,Alice Arm,Kitsault ,British Columbia,55.421943,-129.41944,"Molybdenum, Silver, Lead, Zinc, Copper, Tungsten",,Inactive,1967–1982,
QC-MINCAN-96011c31,Wasamac 2,Arntfield ,Quebec,48.212151,-79.198681,"Gold, Copper, Silver",,Inactive,1968–1988; 1998–2001,
MB-MINCAN-22c51d81,Bernic Lake,Lac du Bonnet ,Manitoba,50.42861111111111,-95.4525,"Tantalum, Cesium",,Inactive,1969–2016,
NS-MINCAN-1f581847,Phalen,New Waterford,Nova Scotia,46.2531427413166,-60.090546881297,Coal,"Closing of Devco’s Phalen Colliery, New Waterford, Cape Breton Island, Nova Scotia 1999 ",Inactive,1970–1976,
QC-MINCAN-0ba394e8,,Cadillac ,Quebec,48.24999,-79.0164,"Copper, Gold, Silver, Selenium, Tellurium, Pyrite",,Inactive,1970–1980,
QC-MINCAN-f506b88c,,,Quebec,49.452351,-76.502154,Iron,,Inactive,1970–1971,
SK-MINCAN-3f1bcdcb,,Belle Plaine ,Saskatchewan,50.3937344175792,-105.15576252378,Salt,,Active,1970–open,
SK-MINCAN-cbfb59a3,Rocanville Division,Rocanville,Saskatchewan,50.458098,-101.533499428582,Potash,,Active,1970–open,
MB-MINCAN-5dc8e1cc,Manibridge,Wabowden,Manitoba,54.70222222222223,-98.83722222222222,"Nickel, Copper",,Inactive,1971–1977,
YT-MINCAN-84f30fdf,Plata ,,Yukon,63.58583333333333,-132.03194444444446,"Silver, Lead, Gold",,Inactive,1972–2009,
ON-MINCAN-7763265b,Haileybury,Lake Timiskaming ,Ontario,47.4540811277114,-79.6736342409021,"Limestone, lime",,Active,1991–open,
SK-MINCAN-0e7fd863,Shand,Estevan ,Saskatchewan,49.100149,-102.879739682922,Coal,,Active,1992–open,
NS-MINCAN-487f832a,Sullivan Creek or Florence,Florence ,Nova Scotia,46.2706638449,-60.2822605823,Coal,"Rio Algom constructing plant for tin mine, near Yarmouth, Nova Scotia",Inactive,1997–2010,
NL-MINCAN-01316355,Nugget Pond,Baie Verte ,Newfoundland-and-Labrador,49.8450213403332,-55.7753590557103,"Gold, Copper",,Inactive,1997–2010,NL-MAIN-842ba1b4
BC-MINCAN-2afc910c,,,British Columbia,49.631388,-125.03805,"Coal, Fireclay",,Inactive,1888–1967,
QC-MINCAN-494c7715,Kiena,Val d’Or ,Quebec,48.120858,-77.917978,Gold,"Contradictory information: ""1981
• Production begins, Kiena gold mine, Val-d’Or, Quebec"" from https://publications.gc.ca/collections/Collection/M39-78-2001E.pdf",Active,1936–1996; 2005–2013; 2021–open,QC-MAIN-9de9bb0d
QC-MINCAN-83950e58,Peel-Elder,Beauchastel,Quebec,48.286378,-79.130486,"Gold, Silver, Copper, Lead, Silica",,Active,1944–1966; 2016–open,
AB-MINCAN-27124b78,,Grande Cache ,Alberta,53.938609067,-119.178388597999,Coal,,Inactive,1967–1972; 2004–2015; 2018–2020,
BC-MINCAN-92291585,"Table Mountain, Cassiar Gold Property, Erikson, Jennie,(…) McDame Lake",Cassiar,British Columbia,59.195555,-129.68499,"Gold, Silver, Zinc, Lead, Copper, Antimony, Bismuth, Cadmium",Lots of prospection and sampling since then,Inactive,1978–1988; 1994–2007,
QC-MINCAN-c972fc39,Vezza,,Quebec,49.5329,-77.76671,"Gold, Silver",Also other periods with significan exploration at the mine.,Inactive,1986–1988; 1993–1997; 2016–2019,
BC-MINCAN-b7c27ef4,Wolverine or Perry Creek,,British Columbia,55.0861,-121.2453,Coal,https://www.gem.wiki/Wolverine_mine,Active,2006–2014; 2017–open,BC-MAIN-afd7eec5
AB-MINCAN-fb104999,Vista,,Alberta,53.403506,-117.36642,Coal,Possibly producing for a period before,Active,2019–open,AB-MAIN-a67a8e37
QC-MINCAN-c4a792be,Domlin,Marbleton,Quebec,45.617966,-71.604558,Lime,,Active,1824–open,
QC-MINCAN-a98e595a,,Thetford Mines ,Quebec,46.07861,-71.30056,Asbestos,,Inactive,1878–1964,
BC-MINCAN-0dc69334,Cariboo-Amelia or Camps McKinney Gold,,British Columbia,49.0625,-119.13861,"Gold, Silver, Lead, Zinc, Copper, Pyrophyllite, Silica",many more producers listed here https://minfile.gov.bc.ca/summary.aspx?minfilno=082ESW020,Inactive,1887–1962,
NS-MINCAN-0403a4c4,No. 26 Colliery,Glace Bay ,Nova Scotia,46.1745138817,-59.948724419,Coal,"Closing of Number 26 Colliery, Glace Bay, Nova Scotia.",Inactive,1900–1984,
ON-MINCAN-95ee2b9c,,Virginiatown ,Ontario,48.13708,-79.58034,Gold,,Inactive,1900–1963; 1990–1996,
BC-MINCAN-ba3df19a,Sheep Creek (Queen or Yellowstone),,British Columbia,49.143055,-117.13444,"Gold, Silver, Lead, Zinc, Silica",,Inactive,1900–1989,
BC-MINCAN-3b8a165b,Cork-Province,slocan,British Columbia,49.907222,-117.07527,"Silver, Zinc, Lead, Cadmium, Gold, Copper",,Inactive,1900–1966,
NS-MINCAN-17fc919f,,Broughton ,Nova Scotia,46.0832401664,-59.9758571735,Coal,many mines operated between 1901 and 1969 and it then became a ghost town (source3),Inactive,1901–1969,
BC-MINCAN-d6706625,,Beaverdell ,British Columbia,49.429166,-119.06222,"Silver, Lead, Zinc, Gold",,Inactive,1901–1978,
ON-MINCAN-dcad146e,,Hagersville ,Ontario,43.01223,-80.01629,Gypsum,,Active,1902–open,
ON-MINCAN-2e153266,Savage (Silver Summit),,Ontario,47.37574,-79.68324,Silver,,Inactive,1903–1964,
QC-MINCAN-50314896,Kilmar or Dobbie?,Kilmar ,Quebec,45.75139,-74.61833,Magnesitic Dolomite,"Formerly: Kilmar Mine, Kilmar, Grenville township, Argenteuil Co., Québec, Canada

Mining started during World War I.The deposit was originally mined as an open pit. Underground mining began by means of adits from the open pit and then continued via a shaft sunk in 1937, reaching a depth of 700 feet in 1942.",Inactive,1907–1993,
ON-MINCAN-d4a1a2d9,Mud,,Ontario,47.41481,-79.62552,Silver,,Inactive,1907–1965,
BC-MINCAN-ea2ae2b5,Giant Mascot,Hope,British Columbia,49.46444,-121.51361,"Lead, Zinc, Silver, Copper, Barite, Antimony, Cadmium",,Inactive,1908–1983,
ON-MINCAN-17e66074,,Cobalt ,Ontario,47.37083,-79.66541,Silver,"Glen Lake Silver Mines Ltd. Was another entry with overlap, but classified as the same and same location on the map. ",Inactive,1909–1970,
ON-MINCAN-55100de8,McIntyre,,Ontario,47.69009,-80.67301,"Silver, Cobalt",,Inactive,1911–1984,
NS-MINCAN-de5d8c51,Malagash salt,Malagash,Nova Scotia,45.79235,-63.32344,Salt,The currently entered coordinates are for the museum (see link attached),Inactive,1918–1961,
AB-MINCAN-8e3e89bc,Foothills,,Alberta,53.0687800438999,-116.795689302,Coal,,Inactive,1918–1961,
ON-MINCAN-44c103e1,Howard,Huntingdon Township,Ontario,44.48671,-77.48011,Fluorspar,,Inactive,1920–1951,
BC-MINCAN-1af9c930,Premier,Silbak Premier Mine,British Columbia,56.054722,-130.0075,"Gold, Silver, Lead, Zinc, Copper",many more owners,Active,1921–1967; 1989–1996; 2009–open,
ON-MINCAN-56baaa6b,Holloway,Matheson,Ontario,48.523515,-79.74788,Gold,,Inactive,1922–1950; 1996–2016,
BC-MINCAN-b1f8d21f,Dome Mountain,Smithers,British Columbia,54.740333,-126.620667,"Gold, Silver, Zinc, Lead",,Active,1923–open,
YT-MINCAN-5ac6985a,,Dawson,Yukon,64.0643569720063,-139.432689891916,Gold,,Inactive,1926–1966,
ON-MINCAN-f326bc19,,,Ontario,48.15626,-80.02613,Gold,,Inactive,1927–1961,
SK-MINCAN-f829adb1,,Dunkirk,Saskatchewan,50.034899060058,-105.714431,Sodium Sulphate,,Inactive,1930–1950,
NB-MINCAN-64cab7f7,,Minto ,New Brunswick,46.08333333,-66.0166666666667,Coal,labour // Miramichi lumber strike and the strike in the MINTO coalfields in October 1937 forced the province to re-evaluate its labour relations policy and consequently to introduce new labour legislation in 1938. (link1) //// https://archives.gnb.ca/LHTNB/Categories/Labour_Landmarks/Minto_1932/Story_en-CA.aspx,Inactive,1932–2009,
MB-MINCAN-a9292578,,Neepawa ,Manitoba,50.23611111111112,-99.46388888888887,Salt,,Inactive,1932–1970,
NS-MINCAN-f8793ddf,,,Nova Scotia,46.89361,-60.48389,Gypsum, gypsum mine called National Gypsum Company quarries operated between 1933 and 1955. The closure match the info of the Index of Producing Mines (source3),Inactive,1933–1955,
NT-MINCAN-7fc88611,Eldorado,,Northwest Territories,66.08384,-118.03657,"Uranium, Radium, Silver, Copper","(see source3, p.223)",Inactive,1933–1960; 1975–1982,
ON-MINCAN-910ae5fa,,Pickle Lake,Ontario,51.4637845328404,-90.185290267705,"Copper, Nickel",might reopen with indigenous participation,Inactive,1935–1960,
NT-MINCAN-eae97f9d,,,Yukon,62.462500000000006,-114.31666666666666,Gold,gold rush,Inactive,1935–1952,
AB-MINCAN-9e539865,,,Alberta,49.5924539786563,-114.405280195553,Coal,,Inactive,1937–1961,
NS-MINCAN-4ed2d911,,Walton ,Nova Scotia,45.2305704711816,-64.0063315080475,"Barite, Silver, Lead, Zinc",,Inactive,1941–1979,
ON-MINCAN-2f8037b7,,,Ontario,48.51388,-81.21363,Gold,,Inactive,1944–1965,
YT-MINCAN-80f3537f,,close to forty mills,Yukon,64.2352952054867,-140.67175829808,Gold,about 30 workers in the first years,Inactive,1946–1954,
ON-MINCAN-966d4687,,,Ontario,48.51106,-81.17272,Gold,also more production pre-1950,Inactive,1948–1963,
NT-MINCAN-d2265a7f,La Forma ,,Yukon,63.1875,-113.89583333333334,Gold,It also produced in the late 1930s https://www.cambridge.org/core/journals/polar-record/article/abs/notes-on-mining-development-reindeer-husbandry-the-eiderdown-industry-in-the-canadian-arctic/FA995FBBD19E425E800252F382721327,Inactive,1950–1969,
ON-MINCAN-be2d685f,,Temagami,Ontario,46.96242,-80.03778,"Copper, Gold, Silver, Nickel, Cobalt, Platinum, Palladium",Alternative Name Temagami Mine  closed (abandoned),Inactive,1952–1977,
ON-MINCAN-75958a0a,Shebandowan ,Thunder Bay ,Ontario,48.596789,-90.247925,"Nickel, Copper",,Inactive,1952–1995,
QC-MINCAN-b8e1cb40,Carol Lake project or Knob Lake,Schefferville ,Newfoundland-and-Labrador,54.791688,-66.80881,Iron,very large working force - 2300 workers/ 650 workers,Inactive,1954–1983,
NB-MINCAN-e35a908b,Heath Steele,Restigouche,New Brunswick,47.29292,-66.06779,"Zinc, Lead, Copper, Silver",,Inactive,1955–1999; 2007–2008,
QC-MINCAN-1532a658,,,Quebec,48.572282,-78.959584,"Copper, Silver, Gold, Zinc, Lead",,Inactive,1955–1957,
QC-MINCAN-73792570,,Murdochville ,Quebec,48.97056,-65.52028,Copper,"city founded in 1951. There was a fire at the mine in 1987 and the production stopped until 1989. However, after 1987, the mine exited the list of principal mines (see wikipedia of Murdochville). Trade unions very imporant. March: Miners’ strike lasts seven and a half months making it the longest conflict in the unionization period in Quebec.
closure voted by referendum",Inactive,1955–1999; 1984–2002,
ON-MINCAN-2d253aae,Denison,Elliot Lake ,Ontario,46.495597,-82.600236,Uranium,,Inactive,1957–1992,
QC-MINCAN-c61b7e60,,,Quebec,46.21785,-70.77873,Gold,"(see source3, p.15)",Inactive,1958–1963,
ZZ-MINCAN-93489a7a,Pugwash,Cumberland County (Pugwash),Nova Scotia,45.84167,-63.65389,Salt,,Active,1959–open,
QC-MINCAN-fec0089b,Copper Rand,Chibougamau ,Quebec,49.889332,-74.275314,"Copper, Gold, Silver",https://collections.banq.qc.ca/ark:/52327/bs20585,Inactive,1959–1997; 2004–2008,
QC-MINCAN-1303d687,,,Quebec,48.042094,-77.581074,Gold,,Inactive,1960–1963,
ON-MINCAN-bc7c770c,Edwards,Wawa ,Ontario,48.31628,-84.3574,Gold,The mine was also in operation from 1933 to 1939,Inactive,1960–2001,
AB-MINCAN-36550536,,Onoway ,Alberta,53.7035660221994,-114.193072868292,Bentonite,"In recent years there have been three sodium bentonite producers in Canada, one in Saskatchewan and two in Alberta. The Alberta operations (located in Rosalind and Onoway) traditionally produced very small quantities of bentonite for local oil-industry use. As of 1989 neither of these operations was in production, although the Rosalind operation resumed limited production in 1990. The Saskatchewan bentonite mining and processing plant, located near Avonlea, is smaller than the American operations. It has undergone a number of changes in ownership in the past twenty years, some of which, including the most recent one (1989-1991), have resulted in the complete shutdown of the operation for extended periods. Customers requiring the product have had to go to the somewhat more stable U.S.
suppliers. The Canadian bentonite also has some limitations in its use and availability, as discussed in later sections of this report",Inactive,1960–1989,
BC-MINCAN-4f76c5f0,,Benson Lake ,British Columbia,59.58272,-133.65358,"Copper, Magnetite, Iron, Gold, Silver, Limestone",The mine at its second opening produced limestone,Inactive,1960–1973; 1985–2016,
NS-MINCAN-c76b7edc,River Denys,River Denys ,Nova Scotia,45.83693,-61.17805,Gypsum,Info on working years here http://nsminerals.atspace.com/LakeEnon.html,Inactive,1964–2012,
NL-MINCAN-75ac8660,Rambler Tailings,Baie Verte ,Newfoundland-and-Labrador,49.88333,-56.08333,"Copper, Gold, Silver, Zinc, Cadmium",It employed approximately 200 men. ,Inactive,1964–1982; 1996–1997,
QC-MINCAN-d737bc31,Norbeau,Chibougamau ,Quebec,49.959221,-74.305286,"Gold, Silver, Copper, Arsenic",,Inactive,1965–1969,
BC-MINCAN-c4bfc9ab,,Fort Langley,British Columbia,49.1895218775501,-122.660631430691,Lime,"Chemical Lime Company Of Canada Formerly Known As Texada Lime Was Established In 1970. The Company Was Purchased In 1992 By The Chemical Lime Company (Lhoist North America) With Corporate Offices In Fort Worth Texas. Chemical Lime Company Is The Leading Manufacturer Of Lime Based Products In North America. The Manufacturing Plant Is Located In Langley BC. Products Produced At This Location Include Quicklime (Calcium Oxide), Hydrated Lime (Calcium Hydroxide And Limestone (Calcium Carbonate). These Products Are Used In The Mining, Pulp & Paper Industries, Agricultural, Construction And Environmental Applications.",Active,1970–open,
BC-MINCAN-8cc41b53,Gibraltar,McLeese Lake,British Columbia,52.529808,-122.286536,"Copper, Molybdenum",,Active,1972–1998; 2004–open,BC-MAIN-6b4800fe
BC-MINCAN-be8c27ca,Silver Queen,Owen Lake,British Columbia,54.083333,-126.716111,"Silver, Lead, Zinc, Gold, Copper",,Active,1972–open,
ON-MINCAN-78fee3c0,Plant,Ingersoll,Ontario,43.0916644714438,-80.8404767639639,Lime,,Active,1973–open,
ON-MINCAN-1b9e07e6,Penhorwood,Penhorwood Township,Ontario,48.19416,-82.09663,Talc,,Inactive,1973–1994,
ON-MINCAN-109b2f38,Drumbo,Clarkson ,Ontario,43.22479,-80.61253,Gypsum,unclear ownership sequence (and dates) as for other Ingersoll entry,Inactive,1978–1994,
NS-MINCAN-5ef9bc93,Silvermines ,"Salmon River area, Cape Breton",Nova Scotia,45.8665,-60.4023,Lead,"Discovered in 1962: Production begins, Yava mine, Salmon River area, Cape Breton, Nova Scotia.",Inactive,1979–1981,
QC-MINCAN-44e0bdee,Sainte-Clotilde (Armand Sicotte) or Marcil Quarry,Howick/Saint-Clothilde,Quebec,45.138417,-73.644215,Silica,,Active,1980–open,
BC-MINCAN-9046c95e,"Elkview, formely Balmer",Sparwood,British Columbia,49.78611,-114.82749,Coal,strike in 1980-1 (link1),Inactive,1980–2015,
AB-MINCAN-9faa9df0,Gregg River,Hinton,Alberta,53.0930820390999,-117.508709734,Coal,,Inactive,1980–2000,
AB-MINCAN-94ccee48,Obed-Marsh,Hinton,Alberta,53.6071952531999,-117.460447091999,Coal,,Inactive,1980–2003,
ON-MINCAN-37c8fe8f,Grandoro,Davis Twp. ,Ontario,46.65107,-80.61542,"Gold, Copper",The mine was also in production from 1899 to 1941. //// It is one of three main occurrences forming the historic Orofino Mountain gold camp.,Inactive,1981–1988,
ON-MINCAN-adda411d,Owl Creek,Timmins ,Ontario,48.55056,-81.13944,Gold,,Inactive,1981–1990,
ON-MINCAN-a9fc3088,,Schreiber ,Ontario,48.97755,-87.36555,Zinc,,Inactive,1981–1998,
ON-MINCAN-c4ce1bd1,,Beardmore,Ontario,49.610917,-87.938508,Gold,"The mine was also in production from 1926 to 1941 ///// more companies: Pancontinental Mining (Canada) Ltd. And Roxmark and Ontex Resources Ltd. /// Northern Empire Mine - 1939, Pancontinental - 1984, Pan-Empire - 1984, Beardmore Gold Mines - 1926",Inactive,1981–1989,
ZZ-MINCAN-a62feaf9,Sussex (Lower Millstream Potash),Sussex ,New Brunswick,45.4435,-65.27,"Potash, Salt",,Active,1983–open,
BC-MINCAN-9d3ba598,New Privateer,Zeballos ,British Columbia,50.03028,-126.81889,Gold,,Inactive,1983–1991,
BC-MINCAN-9568ffa5,Quinsam,Quinsam Mine,British Columbia,49.935277,-125.48749,"Coal, Fireclay, Clay",,Active,1986–2015; 2017–open,
QC-MINCAN-dfd0e79a,Mobrun (Bouchard-Hebert) ,Rouyn-Noranda,Quebec,48.389454,-78.901713,"Zinc, Copper, Gold, Silver",https://www.mindat.org/loc-244581.html,Inactive,1987–1992; 1996–2005,
ON-MINCAN-421e454e,Reiss Lime,Spragge,Ontario,46.201523552166,-82.6931353958627,Lime,"It is more local production. This might be a problematic point because it is an indirect industry to a copper and uranium mines that closes during these years : see ""Carmeuse Lime Limited and Lafarge Canada Inc., formerly Reiss Lime Co. of Canada Ltd., was
established in Long Township during the 1970's to serve a resurgent uranium industry. With a dock accessible by Great Lake freighters, Carmeuse receives shipments of limestone, coal, and coke to make lime for the mining industry. The company has expanded to include storage for sulphuric acid for redistribution and is a major trans-shipment point for road salt that is distributed throughout Northern Ontario. Lafarge Canada Inc. produces a slag cement product used for backfilling in area mines.
During the 1980's, the population and, as a direct result, the service industries diminished appreciably in step with the declining uranium industry. During this time market prices for ore were lower than the production costs, and as a result contracts were lost. With depleting ore reserves, closure of the mines was inevitable and the impact on the area from 1991-1996 was drastic, with the local economy being hit hard. Despite this setback the area continues to thrive in its own way."" from https://townshipofthenorthshore.ca/documents/assets/uploads/files/en/historical_sketch.pdf",Active,1988–open,
QC-MINCAN-8321e85e,LaRonde,Cadillac ,Quebec,48.250795,-78.441603,"Gold, Silver, Copper, Zinc, Lead","This is the Terrex which is part of Agnico Eagle's Laronde Mine and is 100% owned. The Terrex property consists of 21 mining claims that cover in total 424.4 hectares. In 2003, exploration work started to extend outside of the LaRonde property onto the Terrex property where a down-plunge extension of Zone 20 North was discovered. The Terrex property is subject to a 5% net profits royalty to Delfer Gold Mines Inc. and a 2% net smelter return royalty to Barrick. The Company does not expect to pay royalties on this part of the property in 2011. //// El Coco and Terrex properties (collectively the ""LaRonde Mine""),",Active,1988–open,QC-MAIN-e51eda66
SK-MINCAN-023e8a76,,Saskatoon,Saskatchewan,52.1582677135294,-106.674710181748,Salt,"In Saskatchewan, Mosaic Potash Esterhazy Limited Partnership (formerly IMC Esterhazy Canada Limited Partnership) supplies by-product rock salt from its potash operation at Esterhazy to Kayway Salt, which distributes it locally for road de-icing. Saskatoon Chemicals (“SaskChem,” a division of Sterling Chemicals Holdings, Inc.) produces brines from wells near Saskatoon for the manufacture of caustic soda, chlorine, and sodium chlorate to be used internally for its pulp chemicals operations.",Inactive,1989–1991,
QC-MINCAN-282b90a9,Louvicourt,Val d'Or,Quebec,48.1003,-77.502718,"Copper, Zinc, Silver, Gold, Lead",,Inactive,1994–2005,
ON-MINCAN-0b5ec1ba,Tracey Lake,,Ontario,47.4162,-81.023788,Barite,,Inactive,2000–2017,
QC-MINCAN-6ddc0434,Bell Allard,Matagami ,Quebec,49.700976,-77.725148,"Zinc, Silver, Copper, Gold, Lead",link2 for different dates,Inactive,2000–2004,
NS-MINCAN-398607cd,White Rock,Shelburne ,Nova Scotia,44.10752,-65.694008,Quartz,"Closing of Devco’s Phalen Colliery, New Waterford, Cape Breton Island, Nova Scotia 1999 ..?",Inactive,2002–2011,
ON-MINCAN-97f916de,Mishi,Wawa ,Ontario,48.10967,-85.45982,Gold,,Active,2002–open,ON-MAIN-c5fefb01
NS-MINCAN-34f7c905,Little Pond,Alder Point,Nova Scotia,45.31685,-62.04859,Coal,"Brogan operated at Little Pond on the site of the former Alexander and No. 7 mines from 1999 to 2003, subsequently moving North to Merritt Point, immediately South of the Cape Crushing operation, producing for a short time, 2004-2005. from https://notyourgrandfathersmining.ca/sullivan-creek",Inactive,2004–2005,
ON-MINCAN-d0dd9a76,Montcalm,Timmins,Ontario,48.6659,-82.09741,"Nickel, Copper, Platinum, Cobalt, Silver, Gold","The former Montcalm Mine, currently owned by Glencore, was discovered and developed based on a single airborne electromagnetic anomaly identified in the 1970s"" from https://voltagemetals.com/montcalm-project/",Inactive,2004–2009,
NL-MINCAN-ea6fb7af,Hurley or Burgoyne's Cove quarry,Trinity Bay,Newfoundland-and-Labrador,47.5175638126811,-52.9593956444178,Dimension Stone,Hurley Slate Works Company Inc. operated a slate quarrying and processing operation in Burgoyne’s Cove that shut down in August 2010.,Inactive,2005–2010,
ON-MINCAN-0eb0eebf,Victor Diamond,James Bay Lowland,Ontario,52.82667,-83.88528,Diamond,"environmental impact with impact on various First Nations
 500 full-time employees with 100 from Attawapiskat First Nation",Inactive,2008–2019,
ON-MINCAN-576563a5,Woodstock,,Ontario,43.0987,-80.903,Limestone,,Inactive,1956–2008,
MB-MINCAN-d120fe77,Birchtree,,Manitoba,55.701479,-97.927009,"Nickel, Copper, Cobalt, Platinum",,Inactive,1965–1978; 1989–2017,
ON-MINCAN-5ea38d2b,Lockerby,,Ontario,46.433,-81.3238,"Nickel, Copper, Cobalt, Platinum, Gold, Silver, Selenium, Tellurium",,Active,1971–2008; 2011–open,
AB-MINCAN-dc69d788,Cardinal River (Cheviot),,Alberta,53.0667,-117.4,Coal,,Inactive,2005–2020,
BC-MINCAN-b2fb2f65,Trend,,British Columbia,54.898333,-120.961706,Coal,,Inactive,2005–2014,
ON-MINCAN-49811fe2,Island Gold,,Ontario,48.297,-84.4429,Gold,,Active,2007–open,ON-MAIN-687b8c8d
ON-MINCAN-8cc0bb47,Redstone,,Ontario,48.3169444444,-81.1647222222,Nickel,with puntual suspension of activities,Active,2007–open,
QC-MINCAN-7f3c4044,Fabie Bay,,Quebec,48.4407,-79.3526,"Copper, Zinc, Gold, Silver",,Inactive,2007–2009,
NL-MINCAN-0d8566cf,Duck Pond,,Newfoundland-and-Labrador,48.630978,-56.50069,"Copper, Zinc",,Inactive,2007–2015,
BC-MINCAN-1ba2a96d,MAX,,British Columbia,50.6457,-117.586,Molybdenum,,Active,2007–2010; 2011–open,
MB-MINCAN-1e5db9af,San Gold No. 1,,Manitoba,51.0258,-95.6216,Gold,,Inactive,2007–2008,
YT-MINCAN-ea3ac9fd,Minto,,Yukon,62.6167,-137.249,"Copper, Gold",,Inactive,2007–2018,YT-MAIN-752fbcae
NT-MINCAN-5bc1a041,Snap Lake,,Northwest Territories,63.6027,-110.869,Diamond,,Inactive,2007–2015,
ON-MINCAN-8e967a39,Podolsky,,Ontario,46.7775,-80.8763,"Copper, Nickel, PM",,Inactive,2008–2013,
QC-MINCAN-44904232,Goldex,,Quebec,48.0926,-77.8733,"Gold, Silver",,Active,2008–2011; 2013–open,QC-MAIN-c0660aec
QC-MINCAN-d12139ec,Lac Herbin,,Quebec,48.1361,-77.6539,"Gold, Silver",,Inactive,2008–2015,
NL-MINCAN-dea6d820,Beaver Brook,,Newfoundland-and-Labrador,48.4253,-55.1126,Antimony,,Active,2008–2013; 2021–open,
QC-MINCAN-5bfa990a,Barry,,Quebec,48.9903,-75.766,"Gold, Silver",,Active,2008–open,
BC-MINCAN-a5692378,Lexington-Grenoble,,British Columbia,49.0088,-118.614,"Copper, Gold",,Inactive,2008–2008,
QC-MINCAN-8199a781,Perseverance,,Quebec,49.716,-77.7189,"Zinc, Copper, Gold, Silver",,Inactive,2008–2013,
NL-MINCAN-64d7ea1b,Pine Cove,,Newfoundland-and-Labrador,49.9597,-56.1295,Gold,,Active,2008–open,
ON-MINCAN-f10eba9d,Victor,,Ontario,52.8206,-83.8817,Diamond,,Inactive,2008–2019,
QC-MINCAN-6bc0e9f8,Lapa,,Quebec,48.22957,-78.288149,Gold,,Inactive,2009–2018,
ON-MINCAN-e6b5bc73,McWatters,,Ontario,48.311227,-81.03661,Nickel,operation suspended in 2011 ,Inactive,2009–2012,
ON-MINCAN-019a0826,Black Fox,,Ontario,48.534362,-80.340814,Gold,,Active,2009–open,
MB-MINCAN-364a9b59,Hinge,,Manitoba,51.0258,-95.6216,Gold,,Inactive,2009–2015,
QC-MINCAN-17238fd3,Bloom Lake,,Quebec,52.84,-67.28,Iron,,Inactive,2009–2010; 2015–2018,QC-MAIN-089f3c60
MB-MINCAN-da9969c0,Bucko,,Manitoba,54.878,-98.6576,"Nickel, Copper, Cobalt, Platinum",,Inactive,2009–2012,
ON-MINCAN-1fe3b507,Shakespeare,,Ontario,46.33417,-81.85944,"Nickel, Copper, Platinum, Gold, Cobalt",,Inactive,2010–2012,ON-MAIN-54b7e152
ON-MINCAN-b4c53aa7,Hislop,,Ontario,48.34389,-80.30611,Gold,,Inactive,2010–2014,
NU-MINCAN-1d9e43a7,Meadowbank,,Nunavut,65.025,-96.04889,Gold,,Active,2010–open,NU-MAIN-730aefe3
QC-MINCAN-920ca787,Canadian Malartic,,Quebec,48.129852,-78.100285,"Gold, Silver",,Active,2011–open,
ON-MINCAN-643672f4,Timmins,,Ontario,48.383275,-81.549826,Gold,,Active,2011–open,ON-MAIN-f3e6ff08
ON-MINCAN-72455d0c,Holloway-Holt,,Ontario,48.513,-79.74,Gold,This might be the merger of two mines,Inactive,2011–2020,
BC-MINCAN-3fa0299a,Bralorne-Pioneer,,British Columbia,50.777947,-122.821412,Gold,,Inactive,2011–2015,
NL-MINCAN-6068964d,James,,Newfoundland-and-Labrador,54.781569,-66.865862,Iron,,Inactive,2011–2013,
SK-MINCAN-5ac4b2dd,Santoy 8,,Saskatchewan,55.66778,-103.414571,Gold,,Active,2011–open,SK-MAIN-22ce14be
SK-MINCAN-4be6ab2e,Roy Lloyd/Bingo,,Saskatchewan,55.70167,-104.73361,Gold,,Inactive,2011–2014,
YT-MINCAN-75146390,Wolverine,,Yukon,61.41667,-130.1,"Zinc, Silver, Copper, Lead, Gold",,Inactive,2011–2015,
YT-MINCAN-dee2286d,Bellekeno,,Yukon,63.905576,-135.258268,"Gold, Silver, Lead, Zinc",,Inactive,2011–2013,
QC-MINCAN-fb453944,Rocmec 1,,Quebec,48.245,-79.503,Gold,,Active,2012–open,
BC-MINCAN-72fabc94,New Afton,,British Columbia,50.661,-120.514,"Gold, Silver, Copper",,Active,2012–open,BC-MAIN-aa76f6f2
ON-MINCAN-4e67cbbc,St. Lawrence,,Ontario,44.460417,-76.250411,Wollastonite,,Active,2013–open,
QC-MINCAN-aee06f17,Monique,,Quebec,48.188,-77.445,Gold,,Inactive,2013–2015,
QC-MINCAN-658e2488,Bachelor Lake,,Quebec,49.4958,-76.143,"Gold, Silver",,Inactive,2013–2018,
QC-MINCAN-498ff152,Bracemac-McLeod,,Quebec,49.679,-77.666,"Zinc, Copper, Gold, Silver",,Active,2013–open,
ON-MINCAN-6316d452,Detour Lake,,Ontario,50.014,-79.71,Gold,,Active,2013–open,ON-MAIN-aeafbb59
MB-MINCAN-15965632,Lalor Lake,,Manitoba,54.862,-100.155,"Copper, Zinc, Gold, Silver",,Active,2013–open,MB-MAIN-be5b3dc8
ON-MINCAN-07ece30d,Totten,,Ontario,46.381174,-81.454839,"Nickel, Copper, Cobalt, Platinum, Gold",,Active,2014–open,ON-MAIN-28f3f0fc
ON-MINCAN-b9448fc0,Broken Hammer,,Ontario,46.764596,-81.034405,"Copper, Nickel, Platinum",,Active,2014–open,
QC-MINCAN-efafa693,Westwood,,Quebec,48.256,-78.502,"Gold, Copper, Silver, Zinc",,Active,2014–open,
MB-MINCAN-09a8559a,Reed,,Manitoba,54.569,-100.669,"Copper, Zinc, Gold, Silver",,Inactive,2014–2018,
BC-MINCAN-4eaf1f96,Mt Milligan,,British Columbia,55.118,-124.031,"Copper, Gold",,Active,2014–open,BC-MAIN-ed23117f
NU-MINCAN-d93a2c54,Mary River,,Nunavut,71.340446,-71.340446,Iron,,Active,2014–open,
ON-MINCAN-243ee459,Taylor,,Ontario,48.56667,-80.61333,Gold,,Inactive,2015–2020,
QC-MINCAN-1c16c912,Éléonore,,Quebec,52.69889,-76.08667,Gold,,Active,2015–open,QC-MAIN-6dc537e6
BC-MINCAN-c6f7b41b,Yellow Giant,,British Columbia,53.36257,-130.12352,Gold,,Inactive,2015–2015,
BC-MINCAN-12c1ca6d,Willow Creek,Tumbler Ridge,British Columbia,55.619443,-122.22194,Coal,,Inactive,2015–2010; 2014–2018; open–,BC-MAIN-fb4d0c45
BC-MINCAN-496a2682,Red Chris,,British Columbia,57.7,-129.78333,"Gold, Silver, Copper",,Active,2015–open,BC-MAIN-8eb8be0d
SK-MINCAN-7501c939,Cigar Lake,,Saskatchewan,58.06819,-104.54123,Uranium,,Active,2015–open,SK-MAIN-91cf5448
QC-MINCAN-72adc1b6,Renard,,Quebec,52.813913,-72.190579,Diamond,,Active,2016–open,QC-MAIN-3032c251
BC-MINCAN-c26265bf,Silvertip,,British Columbia,59.92,-130.34,"Silver, Zinc, Lead, Gold",,Inactive,2016–2020,
NS-MINCAN-59931ace,Dufferin,,Nova Scotia,44.9719,-62.3929,Gold,,Inactive,2017–2019,
NS-MINCAN-21b5fbce,Moose River Consolidated,,Nova Scotia,44.98243,-62.94292,Gold,,Active,2017–open,NS-MAIN-c9c77a59
NS-MINCAN-3a1569cf,Donkin,,Nova Scotia,46.178108,-59.825861,Coal,,Inactive,2017–2020,NS-MAIN-baf0bfbd
ON-MINCAN-ddd10f1c,Rainy River,,Ontario,48.833,-94.012,"Gold, Silver, Nickel, Copper, Cobalt",,Active,2017–open,ON-MAIN-0aadf28f
SK-MINCAN-de82f057,Bethune,,Saskatchewan,50.62917,-105.26167,Potash,,Active,2017–open,
BC-MINCAN-492cfeba,Brucejack,,British Columbia,56.47554,-130.21783,"Gold, Silver",,Active,2017–open,BC-MAIN-857b7b89
NT-MINCAN-ecb9b239,Gahcho Kué,,Northwest Territories,63.44528,-109.21194,Diamond,,Active,2017–open,NT-MAIN-94e652a5
NU-MINCAN-c890ff47,Hope Bay,,Nunavut,68.137186,-106.612652,Gold,,Active,2017–open,
NL-MINCAN-f672e15e,St. Lawrence,,Newfoundland-and-Labrador,46.9038,-55.4003,Fluorspar,,Active,2018–open,
QC-MINCAN-775312a1,LaRonde - Zone 5,,Quebec,48.2516,-78.451722,Gold,,Active,2018–open,QC-MAIN-e51eda66
QC-MINCAN-1ff82b36,North American Lithium,,Quebec,48.41154,-77.80934,Lithium,,Inactive,2018–2019,QC-MAIN-dc1a16f9
ON-MINCAN-079b81a1,Sugar Zone,,Ontario,48.80496,-85.00401,Gold,,Active,2018–open,ON-MAIN-f4fc3276
BC-MINCAN-5f70024e,"
Silvertip",,British Columbia,59.92,-130.34,"Silver, Zinc, Lead, Gold",,Active,2018–open,
ON-MINCAN-b94b1f25,Borden,,Ontario,47.871883,-83.260981,Gold,,Active,2019–open,ON-MAIN-1c674cd0
ON-MINCAN-b089dc5f,Cochenour,,Ontario,51.076504,-93.808445,Gold,,Active,2019–open,
QC-MINCAN-a6cbac08,DSO (Goodwood),,Quebec,55.09939,-67.34778,Iron,,Active,2019–open,QC-MAIN-b8c826a2
NU-MINCAN-6ca88e12,Meliadine,,Nunavut,63.031529,-92.220206,Gold,,Active,2019–open,NU-MAIN-8b0264c9
YT-MINCAN-8fada64a,Eagle (Dublin Gulch),,Yukon,64.0322,-135.8456,Gold,,Active,2019–open,YT-MAIN-e05ed9fe
NU-MINCAN-4efe1cae,Amaruq,,Nunavut,65.415,-96.697,Gold,,Active,2019–open,NU-MAIN-4ea8ac9d
NB-MINCAN-56d13b79,Upham East,,New Brunswick,45.48334,-65.63127,Gypsum,,Active,2020–open,
NB-MINCAN-ec0f4f8c,Springhill,,New Brunswick,46.0021,-65.3719,"Limestone, lime",,Active,2021–open,
ON-MINCAN-66fd9252,PureGold,,Ontario,50.96932,-93.93847,Gold,,Active,2021–open,
ON-MINCAN-a1e5eaa5,Henderson ,Madoc (Havelock),Ontario,44.50205,-77.45374,Talc,,Inactive,1896–2010,
BC-MINCAN-6b9c35f6,Bralorne Division,Bralorne ,British Columbia,50.777777,-122.82222,"Gold, Silver, Lead, Zinc, Copper, Tungsten",,Inactive,1900–2014,
NS-MINCAN-1a236f18,Old Sydney Collieries Division,,Nova Scotia,46.2891908688,-60.2703601398,Coal,"Establishment of Dominion Iron and Steel, Sydney, Nova Scotia.  1901",Inactive,1901–1975,
ZZ-MINCAN-7ff0442a,Collier Point,Trinity Bay,Newfoundland-and-Labrador,47.591257938665,-53.6901133129545,Barite,18 workers,Inactive,1902–1980; 1998–1998,
ON-MINCAN-aa187be6,,,Ontario,48.60196,-90.58427,Iron ore,,Inactive,1902–1967,
BC-MINCAN-363dab48,,,British Columbia,49.784999,-117.39611,"Silver, Lead, Zinc, Gold, Copper",,Inactive,1903–1952,
ON-MINCAN-bcf440be,,,Ontario,47.58135,-79.58006,Silver,,Inactive,1908–1960,
BC-MINCAN-fe77153d,Pioneer Division,,British Columbia,50.761111,-122.78055,"Gold, Silver, Lead, Zinc, Copper, Antimony, Tungsten",,Inactive,1908–1983,
NS-MINCAN-78389e42,Gypsum Division,Windsor ,Nova Scotia,45.781316,-64.2413709216459,Gypsum,,Inactive,1909–1962,
ON-MINCAN-d4fad89a,,Cobalt ,Ontario,47.36615,-79.63109,Silver,,Inactive,1910–1967,
ON-MINCAN-b7949b70,,,Ontario,48.023,-82.22912,Gold,,Inactive,1910–1968,
AB-MINCAN-e85596cc,,,Alberta,52.4575781635,-116.0846652,Coal,,Inactive,1910–1955,
ON-MINCAN-6a4014e2,Pamour,Timmins,Ontario,48.52273,-81.11502,Gold,,Inactive,1911–2009,
BC-MINCAN-43127ec6,H.B.,Salmo,British Columbia,49.152222,-117.19972,"Lead, Zinc, Silver, Cadmium, Copper, Gold, Talc",,Inactive,1912–1978,
ON-MINCAN-811a3235,Teck-Hughes,,Ontario,48.14722,-80.05266,Gold,,Inactive,1913–1968,
ON-MINCAN-11ba38ba,,,Ontario,48.15254,-80.03634,Gold,,Inactive,1913–1962,
ON-MINCAN-14975e40,George W. MacLeod,Wawa ,Ontario,48.0256,-84.73799,Iron,,Inactive,1914–1998,
AB-MINCAN-0f5767bc,Montgomery,Hanna,Alberta,51.476895456,-111.707653582999,Coal,,Inactive,1914–1999,
BC-MINCAN-ee8be8d0,,Atlin,British Columbia,59.735833,-133.52166,"Silver, Lead, Zinc, Gold, Copper, Cadmium, Molybdenum, Tin",,Inactive,1916–1988,
ON-MINCAN-415de4a6,Lake Shore Tailings,Kickland Lake,Ontario,48.11871,-80.0099,Gold,"The closure of the mine once known as the 'Jewel box of North America' in 1965 was the result of a number of factors including a declining ore reserve picture, unfruitful exploration, increased water inflow into the workings from other closed mines exceeding pump capacity and unstable workings at depth,",Inactive,1918–1964,
SK-MINCAN-0d96824a,,Bishopric ,Saskatchewan,50.009697,-105.779458837696,Sodium Sulphate,,Inactive,1921–1984,
ON-MINCAN-dc624580,McBean,Dobie ,Ontario,48.12537,-79.81791,Gold,,Inactive,1927–1988,
ON-MINCAN-20903670,,Uchi Lake ,Ontario,51.11175,-92.67899,Zinc,,Inactive,1927–1979,
ON-MINCAN-597fb44c,,Dobie ,Ontario,48.14179,-79.8233,Gold,,Inactive,1928–1971,
SK-MINCAN-0b9eff5f,Horseshoe Lake or Osmiston,Ormiston ,Saskatchewan,49.719457,-105.355145320785,Sodium Sulphate,,Inactive,1930–1999,
SK-MINCAN-a056ea87,Whiteshore Lake,Palo ,Saskatchewan,52.121963,-108.286850063219,Sodium Sulphate,,Inactive,1934–2008,
NT-MINCAN-5facb408,Con and Rycons,Yellowknife ,Northwest Territories,62.43333333333333,-114.36666666666666,Gold,"(source1 (Silke),p.112): 
The Con Mine first achieved gold production in 1938 and was the founding industry of Yellowknife, NWT, the city that grew up nearby. Con closed in 2003 and the mine is now under remediation. 
By the fall of 1943, when the mine shutdown for the duration of World War II, the mine employed 170 people, 80 of which were married, 15 women, and 15 natives. There were also 40 children residing in the camp. 
Con Mine became unionized in 1947 when the Local 802 of the International Union of Mine, Mill and Smelter
Workers became organized. Con management disputed the organization, citing unreasonable wage demands during a difficult period for the mine 
Total employment at Con Mine during the late 1950s was approximately 190 (mine records).
In August 2003 it was announced that mining operations were phasing down to a November closure. On October 24th 2003, a first batch of layoffs resulted in a 67 man reduction in the workforce. Ninety-four men were laid off on November 28th closure, leaving about 40 to 50 men to stay and continue with surface and milling operations. (Miramar Mining Corp. Ltd. Annual Report, 2003)",Inactive,1938–2003,
BC-MINCAN-b7530dbc,,Parson/Invermere,British Columbia,51.025277,-116.65083,Barite,,Inactive,1944–1992,
ON-MINCAN-3c0bc175,,,Ontario,47.97179,-80.69617,Copper,,Inactive,1948–1964,
SK-MINCAN-ed17fb21,,Fox Valley,Saskatchewan,50.460916,-106.662494110019,Sodium Sulphate,,Active,1948–open,
MB-MINCAN-0beaa474,,,Manitoba,54.72055555555556,-101.71083333333334,"Copper, Zinc, Gold, Silver",,Inactive,1948–1954,
BC-MINCAN-3d344cc8,Argonault Division,,British Columbia,49.862222,-125.54583,"Iron, Limestone, Garnet, Magnetite",,Inactive,1951–1956,
NL-MINCAN-6e231a28,Flat Bay,St. Georges,Newfoundland-and-Labrador,48.3831965835795,-58.5605861732249,Gypsum,"60 workers (1988-1994)- Domtar Inc. operated from 1988 through to 1994 and under its subsidiary, St. George's Gypsum Mines Inc. form 1988-1990. Estimated annual employment was 60 people. The mine, which was located in Flat Bay, produced gypsum.",Inactive,1952–2019,
ON-MINCAN-89ffefd0,Dyno,,Ontario,44.95006,-78.09776,Uranium,,Inactive,1955–1960,
BC-MINCAN-b2386f8b,,Britannia Beach ,British Columbia,49.554722,-123.40083,"Slate, Flagstone, Dimension Stone, Building Stone",,Inactive,1955–1963,
SK-MINCAN-16ae1a37,,,Saskatchewan,59.457769,-108.432228306277,Uranium,,Inactive,1955–1959,
ON-MINCAN-38ad72cf,Geco,Manitouwadge ,Ontario,49.15576,-85.79033,Zinc,,Inactive,1957–1957,
AB-MINCAN-c49749e0,,Coleman,Alberta,49.8076740233999,-114.524810615999,Coal,,Inactive,1957–1981,
MB-MINCAN-32193179,Thompson,Thompson ,Manitoba,55.7186111111111,-97.85388888888887,"Nickel, Copper, Cobalt, Gold, Silver, Platinum",,Inactive,1957–1982,MB-MAIN-e0a6250e
ON-MINCAN-442661ec,Stanleigh,Elliot Lake ,Ontario,46.413519,-82.63735,Uranium,Abandoned : The site has been rehabilitated and is currently undergoing environmental monitoring.,Inactive,1958–1961; 1983–1996,
BC-MINCAN-f52b7867,,McDame Lake,British Columbia,59.274443,-129.68944,"Gold, Silver, Zinc, Copper",,Inactive,1960–1988,
BC-MINCAN-9d2e58f3,,,British Columbia,49.763333,-125.30222,"Copper, Gold, Silver, Arsenic, Molybdenum, Zinc, Lead",,Inactive,1964–1966,
BC-MINCAN-cc630399,,Stewart ,British Columbia,56.211111,-130.34499,"Copper, Silver, Gold, Lead, Zinc, Cobalt",,Inactive,1964–1984,
NT-MINCAN-bdbfb589,,,Northwest Territories,64.0375,-111.17916666666667,Gold,"The site was completely remediation by a government-funded program in the spring and summer of 2007. 
The camp consisted of two large buildings making up the accommodation complex. The 2-story bunkhouse had room for 62 single men, plus a small hospital, laundromat, and four staff residences for married couples. The Personal Services Building contained cookery, commissary, recreation hall, gymnasium, staff quarters, and library. The two camp buildings were connected by a short arctic-corridor, and the rest of the buildings onsite were connected by rope (life-lines) so that men would not get lost in blizzards walking to work. The mine manager had his own residence on site, and in 1964-1965 trailer units were brought in on winter road to provide additional family housing. In 1965, there were eight families residing on site. A crew of about 100 to 120 persons worked on the site. Jack Boulding was mine manager at the start of production, but was forced to retire in May 1965 due to illness. Len Dixon replaced him as manager at Tundra Mine"" (Byrne et al., 1964 cited by source1 (Silke), p.493)
 ""1968 Closure Worsening economic conditions in late 1967 convinced company officials that the Tundra Mine could no longer operate profitably. Increased costs, depressed gold market, and operational handicaps were the primary factors. The mine was closed in January 1968. On January 6th 1968 the last ore was hoisted, and the mill circuit was cleaned out to recover any remaining gold values. Most usable equipment was sent to Discovery Mine over the winter road. About 5,000 tons of broken ore remained underground, considered too low-grade for treatment in 1968. A substantial rise in the price of gold was considered necessary to reactivate the property"" (Tundra Gold Mines Ltd. Annual Report, 1968 cited by source1 (Silke), p.495)",Inactive,1964–1968,
NT-MINCAN-af265c85,,Port Radium ,Northwest Territories,66.09583333333333,-117.99166666666667,"Silver, Copper","The mine was also in operation from 1934 to 1936. 
First underground exploration of the silver deposits occurred in the 1930s, and in 1964 the mine was brought into production. In 1976, the old Eldorado Mine was reopened and mined for its silver content when Echo Bay ores were depleted. Following the closure of the Port Radium operations in 1982, the Eldorado Mine and Echo Bay Mines were cleaned up.
CAUSE: Underground development on two adit levels began in 1933, but work ceased when the price of silver collapsed. The site remained closed until 1964 when Echo Bay Mines Limited reopened the mine workings. Silver and copper was produced from 1964 until 1976 when the orebody was depleted.
SCALE: A total of 103 persons were employed at the mine at that date. The camp consisted of two-story bunkhouses, cookery, and recreation hall, previously occupied by Eldorado Mine at Port Radium (The Western Miner, August 1968)",Inactive,1964–1974,
QC-MINCAN-018de99d,,Grand Remous ,Quebec,46.7846889273453,-75.8721907131585,Silica,,Inactive,1965–1977,
BC-MINCAN-ec499c88,Boss Mountain Division,Hendrix Lake,British Columbia,52.096666,-120.9075,"Molybdenum, Copper, Zinc, Tungsten, Silver, Bismuth, Rhenium",,Inactive,1965–1983,
NB-MINCAN-3eceb06d,,Minto ,New Brunswick,46.0759529153469,-66.0748074998611,Coal,Minor occurrence (limited to no exploration work),Inactive,1966–1969,
ON-MINCAN-95ce55bd,,Manitouwadge ,Ontario,49.16603,-85.84594,Copper,,Inactive,1967–1968,
NL-MINCAN-e253c8b8,Gull Pond ,Gull Pond ,Newfoundland-and-Labrador,49.1984362553306,-56.1550163624812,"Copper, Iron, Zinc, Lead",205 workers,Inactive,1967–1971,
ON-MINCAN-e8b73215,Shermans,Temagami,Ontario,47.06726,-79.84031,Iron,,Inactive,1968–1990,
SK-MINCAN-8907f04e,Lanigan Division,Lanigan ,Saskatchewan,51.849207,-105.196208125667,Potash,,Active,1968–open,
ON-MINCAN-01505dc1,,Timmins ,Ontario,48.57813,-81.58804,Copper,,Inactive,1969–1971,
SK-MINCAN-f137cb3d,Vanscoy ,Vanscoy,Saskatchewan,52.004765,-107.073918307559,Potash,,Active,1969–open,
AB-MINCAN-fe842d8f,,Metiskow ,Alberta,52.4054231206526,-110.633142376522,Sodium Sulphate,,Inactive,1970–1991,
MB-MINCAN-b13cb83b,,Morton Lake-Herb Lake ,Manitoba,54.855,-100.49,"Copper, Zinc",,Inactive,1970–1974,
YT-MINCAN-9cc98380,Venus,Carcross,Yukon,60.025,-134.63472222222222,"Silver, Gold",The mine was also in operation from 1906 to 1911,Inactive,1970–1971; 1980–1982; 1980–1982,
ON-MINCAN-ba83ef77,Ajax or Kanichee,Temagami,Ontario,47.10385,-79.84555,Copper,"The Kanichee Mine zone has been explored and mined discontinuously from as early as 1910. During the 20th century, it operated and closed down at least three times, with the most recent being from 1973 to 1976. To date, the discontinuous operation of Kanichee Mine has produced 4.2 million pounds of metal.",Inactive,1973–1976,
NU-MINCAN-ba312ca2,Robert's Bay - Ida Bay Silvers,Melville Sound/ Cambridge Bay,Nunavut,68.15,-106.66666666666669,Silver,"85,000 oz silver (small producer).",Inactive,1973–1975,
ON-MINCAN-3e56cc70,,Van Koughnet Twp.,Ontario,46.76779,-84.25805,Silver,,Inactive,1975–1985,
BC-MINCAN-f5fe836e,Marble Canyon or Pavilion Lake,Pavilion Lake,British Columbia,50.817777,-121.65444,"Limestone, Aggregate",,Inactive,1975–2000; 2016–,
AB-MINCAN-6c602c5c,Smoky River,Grande Cache ,Alberta,54.028620246,-119.259533361999,Coal,,Inactive,1976–2000,
NT-MINCAN-0000a6f9,Contact Lake,Port Radium ,Northwest Territories,65.97916666666667,-117.74583333333334,"Silver, Copper",small scale production,Inactive,1977–1977,
BC-MINCAN-fd12e185,Moberly,Golden,British Columbia,51.371666,-116.96472,Silica,,Inactive,1980–2009,
BC-MINCAN-5684f823,,Wells,British Columbia,53.108333,-121.59722,"Gold, Silver, Lead, Zinc, Tungsten",,Inactive,1980–1987,
YT-MINCAN-126524e7,Klondike Operations,Whitehorse,Yukon,60.736734030314,-135.083405076298,Gold,,Inactive,1980–1998,
MB-MINCAN-7b211ba7,Trout Lake (Embury Lake),Flin Flon ,Manitoba,54.81944444444445,-101.8111111111111,"Copper, Zinc, Gold, Silver",,Inactive,1981–2002; 2007–2012,
BC-MINCAN-d22850a8,,Stewart,British Columbia,56.219721,-130.09527,"Gold, Silver, Copper, Zinc, Lead",,Inactive,1981–1984,
NU-MINCAN-072a06ea,Polaris,Little Cornwallis Island - Resolute Bay,Nunavut,75.39,-96.9,"Zinc, Lead","2.694 Mt zinc, 0.724 Mt lead from 20.107 Mt of processed ore (Harrison, 2016). Deposit grade of 13.4% Zn, 3.6% Pb (17.0% metal), depleted, mine site reclaimed (major producer).",Inactive,1981–2002,
BC-MINCAN-51ab7b5c,,Hope,British Columbia,49.508611,-121.28888,"Gold, Silver, Copper, Zinc",,Inactive,1982–1984,
NU-MINCAN-9e468db1,Lupin,Contwoyto Lake - Kugluktuk,Nunavut,65.75,-111.25,Gold,"3.36 Moz gold from 1.2 Mt of processed ore, mill-head grade of 8.9 g/t Au. Mine site and infrastructure still in place due to mining industry ownership since closure (major producer).",Inactive,1982–2004,
BC-MINCAN-e80dfbf3,Bullmoose,Tumbler Ridge,British Columbia,55.118332,-121.49472,Coal,,Inactive,1983–2002,
BC-MINCAN-24d6ecdb,,Creston,British Columbia,49.0971410707532,-116.513092140917,"Limestone, Talc",,Active,1985–open,
BC-MINCAN-73228b52,Blackdome,Clinton,British Columbia,51.323888,-122.48999,"Gold, Silver, Copper, Lead, Zinc, Selenium",,Inactive,1986–1990,
MB-MINCAN-f18c77bd,MacLellan,Lynn Lake ,Manitoba,56.88527777777778,-100.93916666666668,"Gold, Silver",,Inactive,1986–1989,
MB-MINCAN-afd512eb,Puffy Lake,,Manitoba,55.03472222222222,-100.99166666666667,Gold,,Inactive,1987–1989,
BC-MINCAN-8f7f2876,Hedley,Hedley,British Columbia,49.346666,-120.07583,"Gold, Silver",,Inactive,1988–1993,
BC-MINCAN-0133facf,,Lawyers Mine,British Columbia,57.338333,-127.18027,"Gold, Silver, Copper, Zinc, Lead",,Inactive,1989–1992,
NL-MINCAN-96e592ab,Hammerdown,Baie Verte ,Newfoundland-and-Labrador,49.5528314121716,-56.2466780156429,"Gold, Silver",80 workers,Inactive,2000–2004,
BC-MINCAN-ae37ff3d,Dillon or Brule,Tumbler Ridge,British Columbia,55.386666,-121.81999,Coal,,Inactive,2004–2007; 2014–2016,BC-MAIN-becbbe67
SK-MINCAN-1e58c571,Cory Division,Saskatoon ,Saskatchewan,52.089095,-106.866906072091,Potash,,Active,2005–open,
NL-MINCAN-d8d4cf69,Voisey's Bay,Voisey's Bay,Newfoundland-and-Labrador,56.3313442729352,-62.0970567185797,"Nickel, Copper, Cobalt",,Active,2005–open,NL-MAIN-2d8801d6
NU-MINCAN-958f6c12,Jericho Diamond,Kugluktuk,Nunavut,65.99722222222222,-111.475,Diamond,"0.78 M carats of diamonds from 1.2 Mt @ 0.65 cpt from open pit to -100 m, sold for $95-$105/carat. Production figures returned 24% less grade and 31% less value than -280 m resource of 5.525 Mt @ 0.85 cpt valued at $145/carat. Open-pit and mine site rehabilitation performed by federal government (modest producer).",Inactive,2006–2008,
SK-MINCAN-5bb92fba,Poplar River,Coronach,Saskatchewan,49.089639,-105.451972557677,Coal,,Active,2011–open,
NB-MINCAN-91b6b11b,,,New Brunswick,46.56722222,-66.81388889,"Tungsten, Molybdenum, Tin",,Inactive,1868–1956,
ON-MINCAN-e563e91d,,Windsor ,Ontario,42.28071,-83.08224,Salt,This facility employs 110 and estimates their sales at $25–50 million a year.,Active,1893–open,
YT-MINCAN-3681d037,,Mayo,Yukon,63.5942722106275,-135.89756430813,Gold,about 125 workers,Inactive,1895–1953,
ON-MINCAN-efa66873,Frood or Stobie,,Ontario,46.5402,-80.9933,"Nickel, Copper, Cobalt, Platinum, Gold, Silver, Selenium, Tellurium",,Inactive,1900–2017,
MB-MINCAN-dbcb29d9,Rice Lake,Bissett,Manitoba,51.01777777777777,-95.6677777777778,Gold,,Inactive,1932–1968; 1997–2015,
QC-MINCAN-cb0b6882,Lamarque,Bourlamaque ,Quebec,48.1005,-77.7594,Gold,"In the 1973's 900A Map, this mine is reported as Lamaque Mining Co. Ltd.",Inactive,1935–1985; 2007–2008; 2010–2012,
ON-MINCAN-bb67ebd6,David Bell,Marathon ,Ontario,48.69583,-85.88293,Gold,,Inactive,1949–2014,
NB-MINCAN-ef1bbbda,Restigouche,,New Brunswick,47.5041,-66.5547,"Zinc, Lead, Copper, Silver",,Inactive,1954–1998; 2007–2008,
NL-MINCAN-66eb13e6,Coal Brook,Division No. 4 (Flat Bay St. Georges),Newfoundland-and-Labrador,48.3733691473221,-58.4522580025591,Gypsum,Probably an opening and closure between 1987 and 2009,Active,1961–2009; 2017–open,
BC-MINCAN-edae54d9,QR,Quesnel,British Columbia,52.6717,-121.791,Pumice,,Inactive,1996–1998; 2007–2009; 2010–2011,
QC-MINCAN-35f0315c,Bell Asbestos,Thetford Mines ,Quebec,46.086168,-71.300829,Chrysotile,"FR: Dans les années 1980, le gouvernement du Québec a créé la Société nationale de l’amiante (SNA) et a procédé à la nationalisation de la mine Bell et de la Société Asbestos Ltée (mines British-Canadian, King-Beaver, National et Normandie). Les actifs de la SNA ont été vendus en 1992 à la société Mazarin. De 1986 jusqu’à sa faillite en 2007, c’est la société en commandite LAB Chrysotile qui a exploité les deux seules mines encore en activité : Bell et Lac d’Amiante. La société en commandite LAB Chrysotile avait comme objectif de rationaliser la production et la vente d’amiante. La commandite constitue une forme de délégation de pouvoirs où les entreprises mettent leurs actifs en commun sans perdre leur identité et remettent à un responsable le soin de gérer les affaires à leur place. Ce mode de fonctionnement a engendré la fermeture définitive de la mine National, de la mine Normandie, de la mine King-Beaver et de la mine British-Canadian.",Inactive,1888–2008,
NL-MINCAN-241bacc0,Wabanas Division,"Bell Island, Conception Bay, Avalon Peninsula in Newfoundland",Newfoundland-and-Labrador,47.6416361427512,-52.9530919732337,Iron,"Even with this closure, the population continued to rise and by 1951 had reached 10,291. Of these, 1,994 were employed in ore operations and 7,499 were their dependents. These mining families made up 95 percent of the Island’s population",Inactive,1895–1966,
BC-MINCAN-532a0e79,Bluebell,Riondel ,British Columbia,49.7625,-116.86083,"Silver, Zinc, Lead, Copper, Cadmium, Gold",,Inactive,1895–1971,
NB-MINCAN-7b8c37d5,,Hillsborough ,New Brunswick,45.92,-64.67,Gypsum,The mine was also in operation from 1888 to 1892.,Inactive,1911–1980,
NB-MINCAN-6da1abce,Keymet,"Bathurst, Gloucester County",New Brunswick,47.80611111,-65.8108333333333,"Zinc, Lead, Copper, Gold, Silver",,Inactive,1913–1989,
BC-MINCAN-fe89f7d2,Red Rose,,British Columbia,55.136667,-127.601,"Tungsten, Copper",,Inactive,1914–1954,
QC-MINCAN-e52a8f76,Darius O'Brien,Cadillac ,Quebec,48.234096,-78.403513,Gold,,Inactive,1933–1956; 1978–1981,
QC-MINCAN-94a97c39,,,Quebec,48.128947,-77.837575,"Gold, Silver",different dates: https://depositum.uqat.ca/id/eprint/424/1/cahierhist6.pdf,Inactive,1934–1968,
QC-MINCAN-6f83c124,Canadian Malartic,,Quebec,48.11333,-78.13167,"Gold, Silver",,Active,1935–1965; 2011–open,QC-MAIN-e7e6a960
QC-MINCAN-d247a421,Stadacona,,Quebec,48.206111111111,-79.030555555556,Gold,,Inactive,1936–1958,
ON-MINCAN-f6f1599d,Hallnor,Pamour ,Ontario,48.51889,-81.1426,Gold,1936-71: Hallnor Mines Ltd. - production and underground development work. 1971: production absorbed into Pamour production. ,Inactive,1936–1970 (see note),
QC-MINCAN-c59a5e6f,Abana (Normetal),Normetal ,Quebec,49.00083,-79.36639,"Zinc, Copper, Pyrite, Silver, Gold",,Inactive,1937–1975,
QC-MINCAN-b4d15252,Mine Barnat (Sladen),Malartic ,Quebec,48.133513,-78.106684,"Gold, Copper, Iron, Lead, Tellurium, Silver",,Active,1938–1970; 1976–1979; 2019–open,
QC-MINCAN-f243ccd7,,,Quebec,48.1120389020828,-78.131489838626,Gold,,Inactive,1939–1965,
BC-MINCAN-0d2a2241,,,British Columbia,58.735833,-133.60111,"Zinc, Copper, Lead, Silver, Gold, Cadmium",,Inactive,1939–1957,
QC-MINCAN-b006a523,,St-Pierre-de-Broughton,Quebec,46.26,-71.21889,"Soapstones, Talc","Formerly: Broughton Mine (Luzcan mine; Carrière rang XV), St-Pierre-de-Broughton (West Broughton), Mégantic Co., Québec, Canada

Situated just 1 km south of the Harvey Hill Mine on the 15th Rang (Rang XV) in St-Pierre-de-Broughton, Quebec. The mine is an open pit about 500 m long by 150 m wide, and 15 m deep. A former soapstone and talc mine extracting talc from talc/carbonate schist. The deposit is associated with the Black Lake - Thetford Mines ophiolitic complex. The last operator of the mine was Luzcan, the Canadian subsidiary of Group Luzenac. It should be noted that the former name of the town was West Broughton, which still exists in older literature. L'ancienne mine Broughton est située dans la municipalité de Saint-Pierre-de-Broughton. Son gisement, découvert en 1925, a été exploité pour la stéatite, communément appelé « pierre à savon ». La production à cette mine s'est faite de manière intermittente et par différentes compagnies dont la Broughton Soapstone and Quarry Company, Limited (Talc BSQ inc.). Le site contient une excavation mesurant 500 mètres de long sur 150 mètres de large et plus de 15 mètres de profond. Celle-ci n'est pas remplie d'eau, ce qui nous permet de constater les travaux qui y ont été effectués. Dans les dernières années de son exploitation, la roche riche en talc était extraite par simple rabotage au moyen d'une pelle hydraulique Caterpillar 235. L'exploitation était faite par tranches de 3 mètres de hauteur et les travaux effectués sur deux gradins. Il est possible de voir à certains endroits les traces dans la roche qu'a laissées la pelle hydraulique.

Le gisement exposé a la forme d'un croissant. Le gisement est surtout constitué de schiste à talc et à carbonates avec un coeur de serpentinite partiellement chloritisée, talcifiée et cabonatée. Le minerai exploité est un schiste à talc et à carbonates gris verdâtre à grains moyens ou grossier. En 1985, la compagnie Luzenac a acquis le site, mais celle-ci a cessé ses activités en 2001 en raison de la présence de fibres d'amiante dans le minerai.",Inactive,1940–2001,
MB-MINCAN-c215a888,,Morden ,Manitoba,49.21666666666667,-98.26666666666668,Bentonite,,Inactive,1940–1990,
QC-MINCAN-5b252041,,,Quebec,45.34757,-71.905729,"Copper, Silver, Zinc, Lead",,Inactive,1942–1956,
QC-MINCAN-5095caa2,Manitou-Barvue,Val d’Or ,Quebec,48.087043,-77.609176,"Copper, Zinc, Silver, Gold, Lead, Arsenic",,Inactive,1942–1979; 1992–1994,
QC-MINCAN-9d93d503,,,Quebec,45.700357,-76.67726,"Zinc, Lead, Silver, Gold, Copper",,Inactive,1943–1968,
YT-MINCAN-21010b60,Elsa,,Yukon,63.91667,-135.41667,"Silver, Lead, Zinc, Gold","The mine was also in operation from 1934 to 1940 //// 186 workers - The Keno Hill Mine closed abruptly in 1989 due to falling mineral prices. //Elsa is a ghost town with no remaining residents. The shut-down of the mine in 1989 left serious environmental impacts behind. In 2006, the Yukon Government sold the assets of the previous United Keno Hill Mine to Alexco Resource Corp, and they resumed silver mining in 2009. Alexco Resource Corp is the current owner of Elsa and the mining activity in the area, which fluctuates according to mineral prices.",Inactive,1947–1989; 1996–2013; 1996–2013,
QC-MINCAN-96633fce,Mountabaun,Montauban,Quebec,46.8274429197324,-72.3421550269824,"Lead, Zinc, Gold, Silver","small scale - Alternative name since 1985 is Muscocho Explorations Ltd., Montauban ",Inactive,1948–1955; 1983–1990,
YT-MINCAN-19026ee2,,,Yukon,61.3203636,-138.7313569,Gold,gold rush,Inactive,1948–1954,
YT-MINCAN-fe6c2da8,Tantalus Coal,Carmacks ,Yukon,62.12361111111111,-136.26361111111112,Coal,250 workers //Tantalus and Tantalus Butte Coal Mines,Inactive,1948–1967; 1970–1982,
QC-MINCAN-752a010a,Mine East Sullivan (Sullico),,Quebec,48.071491,-77.711431,"Copper, Zinc, Silver, Gold, Arsenic, Cadmium, Iron",,Inactive,1949–1967,
SK-MINCAN-925fb143,Sifto Salt Division,Unity ,Saskatchewan,52.41947,-109.103274040123,Salt,"At one time the plant employed 120 people but with the addition of automation, manual labor was not as productive or cost effective. Still, Compass Minerals remains one of Unity’s largest employers.",Active,1949–open,
NS-MINCAN-4b490fc2,Gypsum Division,Windsor ,Nova Scotia,44.990361878426,-64.1320744567738,Gypsum,,Inactive,1950–1966,
ON-MINCAN-00577313,,Cobalt ,Ontario,47.36214,-79.64146,Silver,,Inactive,1950–1988,
BC-MINCAN-7ad74f43,French,Hedley,British Columbia,49.322167,-120.021,"Copper, Silver, Gold, Zinc, Cadmium, Antimony",,Inactive,1950–1964,
QC-MINCAN-2d521040,West Macdonald,Rouyn-Noranda,Quebec,45.70389,-71.37278,"Zinc, Gold, Silver ",,Inactive,1951–1959; 1991–1993,
QC-MINCAN-e3a4add7,Bevcon,Val d'Or,Quebec,48.098176,-77.422127,"Gold, Copper, Tungsten, Bismuth, Zinc, Silver",,Inactive,1951–1965,
QC-MINCAN-ac2f7cf7,,Desmaraisville ,Quebec,48.52417,-77.68306,"Copper, Zinc, Silver, Gold, Lead, Arsenic",I think the mine above and below should be merged with this one,Inactive,1952–1957; 1983–1990,
ON-MINCAN-80a2d1cd,Bicroft,,Ontario,45.03306,-78.02977,Uranium,,Inactive,1953–1963,
ON-MINCAN-cb4598e1,Moose Mountain,Capreol,Ontario,46.84889,-81.03694,Iron ore,,Inactive,1954–1979,
QC-MINCAN-00e72743,,Vassan ,Quebec,48.288263,-77.993779,"Molybdenum, Beryllium, Copper, Bismuth",,Inactive,1954–1971,
QC-MINCAN-ee174f98,Opemiskas (Opemiska Copper Complex),Chibougamau ,Quebec,49.78833,-74.86111,"Copper, Gold",for closing date see link3. for open date see link1 and link3,Inactive,1954–1991,
QC-MINCAN-3616c9c0,,Schefferville ,Quebec,54.8011794029987,-66.8180639156945,Iron ore,"seems like a perfect example of a mining town that closed and that was on indigenous territory
When mine operations ceased, most of the 4,000 or so non-aboriginal occupants left. ",Inactive,1954–1982,
NB-MINCAN-8fe6e5aa,,,New Brunswick,46.0438,-66.0259,Coal,Minor occurrence (limited to no exploration work),Inactive,1955–1961; 1966–1967,
QC-MINCAN-86db3fc3,,St-Urbain,Quebec,47.53972,-70.565,Ilmenite,"related to other mines (Bignell, General Electric, Coulombe et Furnace)",Inactive,1955–1966,
ON-MINCAN-50ed8bba,Pronto,"Spragge, Elliot Lake",Ontario,46.21,-82.71,Uranium,,Inactive,1956–1960,
NB-MINCAN-84fea508,Wedge,Bathurst,New Brunswick,47.39,-66.13,Copper,important mining camp,Inactive,1956–2008,
QC-MINCAN-ecf7d958,Mine Pierre Beauchemin (Eldrich-Flavel),Rouyn-Noranda,Quebec,48.319009,-79.202543,Gold,,Inactive,1956–1962; 1988–1993,
QC-MINCAN-c5d68696,Lacorne,,Quebec,48.41083,-77.80917,Lithium,,Inactive,1956–1965,
QC-MINCAN-a6163f93,Sleeping Giant,Amos,Quebec,49.1375,-77.9791,"Gold, Silver","multitude of closures and opening in the 2010s /https://mininglifeonline.net/company/sleeping-giant-mine/7563  ///////////  Contradictory information "" closuring of sleeping giant in 1991 and reopening in 1993' from https://publications.gc.ca/collections/Collection/M39-78-2001E.pdf",Active,1956–1959; 1974–1975; 1988–open,QC-MAIN-d29e0839
QC-MINCAN-8b749c48,Joe Mann,Chibougamau ,Quebec,49.487819,-74.436758,"Gold, Copper, Silver, Copper, Lead, Arsenic, Zinc",operated in three phass (see link1),Inactive,1956–1959; 1974–1975; 1985–2007,
ON-MINCAN-803a9ad4,Can-Met and Stanrock,Elliot Lake ,Ontario,46.477631,-82.545847,Uranium,,Inactive,1957–1960,
QC-MINCAN-950a09b5,Don Rouyn and Beaudry Pit,Royun,Quebec,48.250594,-79.067261,"Copper, Silica, Molybdenum, Gold, Silver",,Inactive,1957–1981,
QC-MINCAN-c4c0dddc,Orchan (pre) and Norita (post-1976),Matagami ,Quebec,49.706617,-77.706362,"Zinc, Copper, Silver, Lead, Gold",,Inactive,1957–1982,
QC-MINCAN-3f1c4487,Cedar Bay,Chibougamau ,Quebec,49.893133,-74.308672,"Copper, Gold, Silver, Zinc, Arsenic, Cobalt","This report is very important. At page 25 it contains the full history of mining ownership in Chibouamaun (http://www.chibougamaumines.com/documents/Technical_Reports_lac_chibougamau_SEDAR_000.pdf).

In 1995, Ressources MSV Inc. acquires all of the Westminer’s assets in Chibougamau.",Inactive,1957–1990,
QC-MINCAN-6792f860,Canadian Merrill or Merrill Island,Chibougamau ,Quebec,49.87032,-74.329524,"Copper, Silver, Gold, Molybdenum, Zinc","I assume this is the Canadian Merrill gives the consistency between the 0,1,1 and the table 2 in link 1",Inactive,1958–1967; 2007–2008,
ON-MINCAN-7255a38e,,Portland,Ontario,44.44162,-76.64317,Graphite,,Inactive,1959–2013,
BC-MINCAN-e6fd6466,,Hope ,British Columbia,49.48361,-121.48472,"Nickel, Copper, Chromium, Cobalt",,Inactive,1959–1971,
AB-MINCAN-e50ebe76,,Rosalind ,Alberta,52.787376390226,-112.440255132113,Bentonite,"In recent years there have been three sodium bentonite producers in Canada, one in Saskatchewan and two in Alberta. The Alberta operations (located in Rosalind and Onoway) traditionally produced very small quantities of bentonite for local oil-industry use. As of 1989 neither of these operations was in production, although the Rosalind operation resumed limited production in 1990. The Saskatchewan bentonite mining and processing plant, located near Avonlea, is smaller than the American operations. It has undergone a number of changes in ownership in the past twenty years, some of which, including the most recent one (1989-1991), have resulted in the complete shutdown of the operation for extended periods. Customers requiring the product have had to go to the somewhat more stable U.S.
suppliers. The Canadian bentonite also has some limitations in its use and availability, as discussed in later sections of this report",Inactive,1959–1990,
NB-MINCAN-9f7734a6,Havelock Lime Works,Havelock ,New Brunswick,45.99444444444445,-65.31555555555555,"Lime, Dolomite, Gypsum","1950: Production begins, Canada Cement Lafarge limestone quarry, Havelock, New Brunswick. Production was reduced in 1983. https://publications.gc.ca/collections/Collection/M39-78-2001E.pdf",Inactive,1960–1986,
ON-MINCAN-d83fc6e5,,,Ontario,48.7710268418072,-91.3305857187763,"Gold, Silver",,Inactive,1960–1966,
SK-MINCAN-770a0f8a,Costello (klimax),Estevan ,Saskatchewan,49.069018,-102.774474507189,Coal,,Active,1960–open,
QC-MINCAN-917b418f,,Oka,Quebec,45.501019,-74.030238,"Niobium, Rare Earth Elements (REE), Magnesium",The mine opened in 1961 and ceased operations around 1977,Inactive,1961–1976,
QC-MINCAN-fafdb72f,,,Quebec,46.7392882533982,-76.072042318215,Silica,,Inactive,1961–1967,
ON-MINCAN-135e7a9a,,Cochenour,Ontario,51.063322,-93.801492,Gold,,Inactive,1961–1971,
QC-MINCAN-6f611078,Solbec,Stratford ,Quebec,45.804761,-71.287473,"Zinc, Copper, Silver, Gold, Lead, Caesium",,Inactive,1962–1971,
QC-MINCAN-27be0c8c,,Cadillac ,Quebec,48.34652,-78.399005,"Molybdenum, Bismuth, Copper",,Inactive,1962–1971,
QC-MINCAN-322a4a32,,Val d'Or ,Quebec,48.346582,-78.191335,"Nickel, Copper",,Inactive,1962–1968,
QC-MINCAN-dd9cf286,Coniagas (Conegas),Chibougamau ,Quebec,49.494436,-76.168211,"Zinc, Silver, Lead",,Inactive,1962–1967,
NB-MINCAN-2eae99bc,Brunswick No.12,Bathurst ,New Brunswick,47.47,-65.89,"Zinc, Lead, Copper, Silver, Gold, Iron, Arsenic",,Inactive,1964–2013,
ON-MINCAN-65def121,,Cochenour ,Ontario,51.06971,-93.81273,Gold,,Inactive,1965–1971,
QC-MINCAN-6dcb2537,Chimo,Louvicourt,Quebec,48.011536,-77.252816,"Gold, Arsenic","contradictory information "" opening of chimo gold mine, 1986"" in https://publications.gc.ca/collections/Collection/M39-78-2001E.pdf",Inactive,1966–1967; 1989–1996,
QC-MINCAN-385418cf,,Joutel ,Quebec,49.452972,-78.353331,"Copper, Zinc, Silver, Iron","The mine is a copper mine and operated between 1967 and 1972. However, the mine is in the 1973 list. Moreover, according to the cite above, the mine is located in Baie-James (close to Joutel)",Inactive,1967–1975,
QC-MINCAN-38503c0d,Grandroy,Chibougamau ,Quebec,49.93249,-74.199214,"Copper, Gold, Molybdenum","there are interruptions in 0, 1, 0, 1. See definitive dates in link1, table 2",Inactive,1967–1975,
SK-MINCAN-80bcba5d,Snakehole Lake,Cabri ,Saskatchewan,50.509155,-108.476661208373,Sodium Sulphate,,Inactive,1967–1991,
NL-MINCAN-ccc7db89,Villa Marie,Placentia,Newfoundland-and-Labrador,47.2994055617559,-53.8573478199739,Pyrophyllite,The mine was also in operation from 1909 to 1910,Inactive,1968–1988,
YT-MINCAN-87d97f70,Grum or Faro,Faro,Yukon,62.35722222222223,-133.37305555555557,"Silver, Gold, Lead, Zinc","750 workers - abandoned, the Faro mine is one of Canada’s most expensive clean-up projects  billion dollars",Inactive,1969–1982; 1986–1998,
ON-MINCAN-0824fb4a,Magino,Wawa ,Ontario,48.28402,-84.45101,Gold,,Inactive,1972–1992,ON-MAIN-8825d90d
BC-MINCAN-77aaa8f9,Similkameen Division,Princeton,British Columbia,49.34028,-120.55528,"Copper, Molybdenum, Gold, Silver",,Active,1972–open,
QC-MINCAN-8dd11a32,Somex (Lac Edouard),La Tuque,Quebec,47.4388480763558,-72.7842635857368,"Nickel, Copper",Previous name: Lac Edouard,Inactive,1973–1974,
QC-MINCAN-16ff721a,,Lac Bouchette,Quebec,48.299659,-72.143569,Quartz,"might have been open and minor for the full period contracting sources
FR: Au nord du village à environ 4 km de son entrée, se trouve un important dépôt de quartz. Vers 1941, au beau milieu de la Seconde Guerre mondiale, une usine de silice ouvre ses portes à cet endroit dans le but de fournir en matières premières les Alliés, mais aussi l'industrie locale dans une moindre mesure. Le minerai est extrait et transporté par camion vers le moulin, en bordure du chemin de fer où il est entreposé, puis il est broyé selon les spécifications des clients et envoyé par voie ferroviaire. Malgré la grande valeur de l'industrie et les possibilités commerciales même en temps de paix, l'usine ne restera ouverte que quelques années et fermera peu après 1943. Le dépôt de quartz à ciel ouvert est toujours là et les ruines de l'usine sont toujours visibles dans les sous-bois en bordure du chemin de fer, au nord du village.
",Inactive,1975–2014,
QC-MINCAN-160e828f,,Lemoine,Quebec,49.761783,-74.106777,"Zinc, Copper, Silver, Gold",,Inactive,1975–1983,
QC-MINCAN-0feebe9d,Joubi,Val d'Or,Quebec,48.084246,-77.844044,"Gold, Silver, Copper",with important periods of closures,Active,1976–open,
QC-MINCAN-548f03a9,Mount Wright,Mount Wright,Quebec,52.7482951698171,-67.350998,Iron,,Active,1976–open,QC-MAIN-084bd95c
YT-MINCAN-fbcf8946,,MacMillan Pass ,Yukon,63.06861,-130.205,Gold,,Inactive,1977–1978; 1984–1985,
QC-MINCAN-b4ac25f5,Mine Bras D'Or (Zone Dumont),Val d'Or,Quebec,48.125937,-77.689716,Gold,,Inactive,1978–1994,
QC-MINCAN-aa0112c5,Chadbourne,Royun,Quebec,48.245971,-79.032883,"Gold, Silver, Copper, Tellurium",,Inactive,1978–1990,
QC-MINCAN-61b5418f,,Destor,Quebec,48.4326189155475,-78.672788164151,Gold,,Inactive,1983–1988,
ZZ-MINCAN-dac0b02a,Cloverhill,Sussex ,New Brunswick,45.3353,-65.3618,"Potash, Salt",government-sponsored drilling program,Inactive,1985–2003,
QC-MINCAN-3976052d,Wrightbar,Val d'Or,Quebec,48.103521,-77.580791,"Gold, Copper",,Inactive,1986–1988; 1995–1997,
NL-MINCAN-1df591ab,Hope Brook,Couteau Bay,Newfoundland-and-Labrador,47.73778,-58.08639,Gold,200 or 262 workers,Inactive,1987–1997,
BC-MINCAN-207f56e7,Nazko or Klara,Quesnel,British Columbia,52.922667,-123.736667,Diatomite,,Inactive,1987–1993,
QC-MINCAN-159c6662,Francoeur,Royun,Quebec,48.207841,-79.292369,Gold,,Inactive,1988–1990; 1991–1999,
ON-MINCAN-75eb4781,Winston Lake,Pays Plat Lake ,Ontario,48.97865,-87.37375,Copper,,Inactive,1988–1998,
QC-MINCAN-cf418fe9,Casa Berardi,Val d'Or,Quebec,49.571666666667,-79.231944444444,Gold,Many subzone to the Casa Berardi project . It includes 'Golden Pond East Mine' and 'West Cada Berardi'   ////////// https://publications.gc.ca/collections/Collection/M39-78-2001E.pdf /// reopening in 2017 ( closure before that to be confirmed),Active,1988–1991; 1993–open,QC-MAIN-b86f7d07
QC-MINCAN-ff337c19,"Lucien Beliveau, New Pascalis",Val d'Or,Quebec,48.141294,-77.516743,Gold,,Inactive,1989–1993,
ON-MINCAN-adc2323a,,Kirkland Lake,Ontario,48.157406,-80.041772,Gold,,Inactive,1990–1992,
QC-MINCAN-2589061c,Silidor (Sillidor),Rouyn-Noranda,Quebec,48.253,-79.07873,"Gold, Copper, Silver, Barium",,Inactive,1990–1997,
QC-MINCAN-072223ba,Duvay-Obalski,Amos,Quebec,49.873365,-74.392456,"Gold, Copper, Silver, Zinc",Heal Leach Operation is a mining technique. The mine is Duvay-Obalski.   /////    https://www.mindat.org/loc-207913.html,Active,1990–open,
ON-MINCAN-9274d3c8,Thayer-Lindsley,,Ontario,46.5611,-80.9919,"Nickel, Copper, Cobalt, Platinum, Gold, Silver, Selenium, Tellurium",in 2007 (before closure ) The Thayer Lindsley mine began production in 1991 and currently employs 195 people.,Inactive,1991–2009,
QC-MINCAN-4d3c6876,Mouska,Rouyn-Noranda,Quebec,48.27622,-78.569989,Gold,,Inactive,1991–2012,
ON-MINCAN-94a916ee,Norandas,Timmins ,Ontario,48.4756673047851,-81.3281597536212,Nickel,"Dome Mountain Project: Gold mineralization was first located on the property in the late 1800’s and considerable surface and underground work was done in 1923-24. Resumption of exploration in the 1980’s led to the discovery of the Boulder Vein system in 1985 by Noranda. Underground mining was initiated in August 1991 by Timmins Nickel Inc. and its joint venture partner, Habsburg Resources Inc. and ceased in May 1993. During this period 43,900 tonnes at an average grade of 12.0 grams per tonne gold were reportedly mined from shrinkage stopes accessed from trackless drift developments on the 1290 and 1370 levels.",Inactive,1991–1993,
BC-MINCAN-f7ead273,Ashcroft,Ashcroft ,British Columbia,50.720277,-121.21694,Aggregate,"In 2003, 250 000 tonnes of roofing granules were produced in six distinct colours, employing approximately 75 people. In 2004, the plant produced approximately 250 000 tonnes of roofing granules in ten distinct colours, employing approximately 55 people.",Active,1997–open,
QC-MINCAN-fb7ead14,Troilus,Chibougamau ,Quebec,51.011121,-74.466634,"Gold, Copper, Silver",,Inactive,1997–2010,QC-MAIN-b2148882
QC-MINCAN-a90e8433,Raglan,Ungava,Quebec,61.681668,-73.671588,"Nickel, Cobalt, Copper, Palladium, Platinum, Gold",,Active,1998–open,QC-MAIN-a97821c0
BC-MINCAN-21e2fe4b,Craigmont,Merritt ,British Columbia,50.2075,-120.92611,"Magnetite, Copper, Iron, Silver, Gold",,Inactive,1961–1982; 2012–2013,
MB-MINCAN-8aa792f8,Birchtree,,Manitoba,55.70222222222223,-97.92472222222224,"Nickel, Copper, Cobalt, Gold, Silver, Platinum",,Inactive,1968–2017,
SK-MINCAN-2cb6d271,Seabee,La Ronge,Saskatchewan,55.685276,-103.613061791414,Gold,,Inactive,1991–2018,SK-MAIN-29afbdb5
ON-MINCAN-f49f4b0c,Keeley-Frontier,,Ontario,47.19908,-79.5071,Silver,large mine in ghost town ,Inactive,1908–1964,
ON-MINCAN-10492cda,Ontario Silica Division,Killarney ,Ontario,45.97102,-81.58989,Silica,,Inactive,1911–1970,
ON-MINCAN-017f9527,Schumacher Division (Former McIntyre) and renamed 1981: Shumacher,Schumacher or Shumacher,Ontario,48.4821,-81.29626,Gold,"exhaustion of reserves in 1984.
In 2015, the McIntyre Powder Project and Occupational Health Clinics for Ontario Workers began investigating the link between the McIntyre aluminum dust treatment and neurological disorders, including ALS and Parkinson's disease. The McIntyre Powder Project is a registry for miners who have health issues and who have been exposed to McIntyre Powder aluminum dust.",Inactive,1912–1984,
AB-MINCAN-7c13c887,,,Alberta,51.4798829686,-112.767824149,Coal,,Inactive,1912–1959,
BC-MINCAN-88a898c2,,Beaverdell ,British Columbia,49.432221,-119.06111,"Silver, Lead, Zinc, Gold, Cadmium, Copper",,Inactive,1913–1990,
ON-MINCAN-318a9b0c,Conley,Madoc (Havelock),Ontario,44.50406,-77.45273,Talc,,Inactive,1914–2010,
NS-MINCAN-a6164d30,,Springhill ,Nova Scotia,45.6533882912,-64.063784351,Coal,"Production begins at Novex Mining and Exploration Company’s barite mine at Pine Brook, Cape Breton, Nova Scotia",Inactive,1915–1970,
NS-MINCAN-4e1766d4,,Sydney Mines ,Nova Scotia,46.242273,-60.230613,Coal,,Inactive,1918–1963,
NL-MINCAN-4cdd35dd,Buchans Unit,Buchans ,Newfoundland-and-Labrador,48.8178821713326,-56.8705918918368,Barite,,Active,1928–1984; 2006–2010; 2020–open,
ON-MINCAN-e5c8caff,,Little Current,Ontario,45.9803585382338,-81.9272348256493,Silica,,Inactive,1930–1968,
QC-MINCAN-66c987da,,,Quebec,48.310132,-79.075479,"Zinc, Copper, Silver, Gold, Iron, Sulfur, Tellurium",,Inactive,1930–1962,
QC-MINCAN-cc76e1fd,Beattie,,Quebec,48.510851,-79.235575,Gold,,Inactive,1933–1956,
QC-MINCAN-d5127146,,,Quebec,48.263114,-79.05047,"Gold, Silver, Silica",,Inactive,1937–1956,
NB-MINCAN-82b12cca,Nigadoo,Robertville ,New Brunswick,47.73306,-65.80642,"Lead, Zinc, Copper, Silver",,Inactive,1938–1988,
NS-MINCAN-acc5d8df,,,Nova Scotia,45.2202726966124,-63.9327504318722,Coal,,Inactive,1939–1971,
QC-MINCAN-493be2d3,,,Quebec,47.414016,-78.676119,Gold,,Inactive,1940–1958,
SK-MINCAN-b3bb71c6,,Gladmar ,Saskatchewan,49.03696,-104.433579471723,Sodium Sulphate,,Inactive,1941–1980,
NS-MINCAN-1cf7a9a3,Acadia Coal Division,,Nova Scotia,45.560911,-62.5639188,Coal,,Inactive,1946–1972,
QC-MINCAN-64e67e5e,Candego,,Quebec,49.063244,-66.068973,"Lead, Zinc, Silver, Gold",,Inactive,1948–1954,
QC-MINCAN-85a4c755,Marcoux,Highwater ,Quebec,45.095201,-72.401157,"Talc, Steatite","In 1992's 900A Map, this mine changed location to South Bolton which is very close to Highwater (like 50 min driving). ",Inactive,1949–1952; 1992–1993,
YT-MINCAN-db52698a,Discovery,Discovery,Northwest Territories,62.26646,-137.1215,Gold," ""substantial abandoned property located 84 kilometers north of Yellowknife, NWT. The mine produced gold between 1950 and 1969, producing one million ounces from one million tons of ore. It has been visited numerous times over the years by the author. The old townsite and mine buildings were demolished in the summer of 2005 during a cleanup project managed by D.I.A.N.D."" (source1 (Silke) p. 176) 
CAUSE : Economic ore reserves were depleted in 1969 and the mine and village closed 
SIZE: In 1949-1950, Discovery Mine employed about 60 to 70 men. Men were housed in two bunkhouses each of 35 man capacity. Single-staff members were housed above the combined office/warehouse structure. AND An average of 128 were employed at Discovery in 1966. Two women were also on the payroll as assistants in the assay office.",Inactive,1949–1969,
ON-MINCAN-777a1fe8,,Sarnia,Ontario,42.94038,-82.43676,Salt,,Inactive,1950–1960,
ON-MINCAN-0dfebfb8,Murray,Sudbury,Ontario,46.5147592127011,-81.0654377460222,"Nickel, Cobalt",The mine was also in operation from 1916 to 1923.,Inactive,1950–1971,
QC-MINCAN-bad86769,Delbridge (Eldona),Noranda ,Quebec,48.261709,-78.965241,"Zinc, Gold, Silver, Copper, Lead",,Inactive,1950–1952; 1969–1971,
ON-MINCAN-4e371c8f,,Timmins ,Ontario,48.55806,-80.25318,Asbestos,,Inactive,1950–1964,
AB-MINCAN-3a3b1cf3,,Halkirk ,Alberta,52.4759600328,-112.193080695,Coal,,Inactive,1950–1977,
QC-MINCAN-371a8eba,Weedon (McDonald),,Quebec,45.704854,-71.371148,"Copper, Zinc, Silver, Gold, Cadmium, Lead",,Inactive,1951–1959; 1969–1973,
ON-MINCAN-241da7ce,Sheguiandah Quarry,Howland Twp,Ontario,45.9805232852148,-81.9287919438943,Silica,,Inactive,1951–1954,
ON-MINCAN-b29e557f,,Werner Lake,Ontario,50.4639,-94.93163,Nickel,,Inactive,1954–1972,
NB-MINCAN-73dabffa,Heath Steele,Newcastle ,New Brunswick,47.29027778,-66.0722222222222,"Zinc, Lead, Copper, Silver",,Inactive,1955–2008,
ON-MINCAN-10e5bbda,,Manitouwadge ,Ontario,49.15656,-85.8246,"Zinc, Copper, Silver",,Inactive,1955–1974,
SK-MINCAN-6db3787e,,,Saskatchewan,59.54278,-108.66861,Uranium,,Inactive,1955–1960,
SK-MINCAN-7efafd3f,,,Saskatchewan,59.595276,-108.423042959478,Uranium,,Inactive,1956–1958,
ON-MINCAN-649ffc0b,Madawaska,Brancroft,Ontario,45.02066,-77.92475,Uranium,"cause: The decline of global demand for uranium shut the mine down in 1964 destroying the local economy. Local Catholic priest Rev. Henry Maloney, the brother of former Ontario Ombudsman Arthur Maloney, led the community to demand support from the Government of Ontario and Government of Canada to extend the contracts buying uranium. Canadian Prime Minister John Diefenbaker, relying on an old agreement with the United Kingdom to buy uranium from Canada, was able to prolong the life of the mine by eighteen months, giving the community enough time to plan for the closure",Inactive,1957–1964; 1975–1982,
NL-MINCAN-f963e9fb,,St-Lawrence,Newfoundland-and-Labrador,46.9148852113021,-55.4858431036119,"Fluorspar, Zinc, Lead, Copper",,Inactive,1957–2019,
QC-MINCAN-9818b4f2,Hilton,Shawville ,Quebec,45.603768127235,-76.4924713157667,Iron,,Inactive,1958–1977,
ON-MINCAN-4bf7d5dd,,,Ontario,46.60343,-80.76397,"Copper, Gold",,Inactive,1958–1962,
SK-MINCAN-c018a1f6,,,Saskatchewan,59.5069340788426,-108.480554738592,Uranium,,Inactive,1958–1960,
QC-MINCAN-b0fa3003,,,Quebec,48.360297,-79.082217,"Copper, Zinc",,Inactive,1961–1965,
BC-MINCAN-26f05c30,,Highland Valley,British Columbia,50.485555,-121.04833,"Copper, Molybdenum, Silver, Gold, Lead, Zinc",,Inactive,1962–2021,
SK-MINCAN-8b2e7c65,K1,Esterhazy ,Saskatchewan,50.748881,-101.929642869569,"Potash, Salt",,Active,1962–open,
BC-MINCAN-7bcfac29,,,British Columbia,52.292777,-131.19888,"Iron, Magnetite",,Inactive,1962–1968,
QC-MINCAN-6a7fdd66,,Matagami ,Quebec,49.789443,-77.835343,"Copper, Zinc, Gold, Silver, Iron",,Inactive,1963–1970,
QC-MINCAN-39b8fac4,,,Quebec,47.358367,-78.93895,"Copper, Nickel",,Inactive,1965–1968,
NL-MINCAN-3dc8db8b,Whalesback,Springdale ,Newfoundland-and-Labrador,49.5968167108511,-56.0060387803009,"Copper, Zinc, Titanium",102 workers,Inactive,1965–1974,
NL-MINCAN-4aa95cd5,Pipe (1),Thompson ,Manitoba,55.351359308,-61.4900941686,"Nickel, Copper, Cobalt, Gold, Silver",,Inactive,1966–1971,
QC-MINCAN-56b2f372,,Lac de Renzy,Quebec,46.811944,-76.703328,"Nickel, Copper, Cobalt, Chromium, Gold, Platinum, Palladium",,Inactive,1969–1972,
SK-MINCAN-391cddcb,Colonsay,Viscount,Saskatchewan,51.930459,-105.775724508931,"Potash, Salt",,Active,1969–2016; 2017–open,
NL-MINCAN-111d3275,Pipe (2),Thompson ,Manitoba,55.29027208,-61.5029041677,"Nickel, Copper, Sulphur",,Inactive,1969–1984,
NB-MINCAN-6ad4666a,Caribou ,,New Brunswick,47.55864,-66.29385,"Zinc, Copper, Lead, Silver, Closed between 2020 and 2021",Closed between 2020 and 2021,Active,1970–1970; 2007–2008; 2016–open,
BC-MINCAN-faa6f3ce,Island Copper,Port Hardy,British Columbia,50.599721,-127.47499,"Copper, Molybdenum, Silver, Gold, Zinc, Lead, Rhenium",,Inactive,1971–1995,
BC-MINCAN-fc77768a,Line Creek,Line Creek,British Columbia,49.929166,-114.77611,Coal,,Inactive,1972–2015,
BC-MINCAN-9b7bf5e4,"Babine Lake Division, Bell and Granisles",Babine Lake,British Columbia,55.002777,-126.23194,"Copper, Silver, Gold, Zinc, Lead, Molybdenum",,Inactive,1972–1992,
SK-MINCAN-3c92442c,Jolu,Mallard Lake,Saskatchewan,56.000618,-104.281573,Gold,,Inactive,1973–1990; 2011–2014,
BC-MINCAN-96faa92c,,Brandywine,British Columbia,50.114444,-123.10361,"Gold, Silver, Lead, Zinc, Copper, Cadmium",,Inactive,1974–1982,
NL-MINCAN-6870dbff,,Daniel's Harbour,Newfoundland-and-Labrador,50.295759141257,-57.4651217583147,Zinc,"170 workers - Newfoundalnd Zinc Mines Ltd. operated from 1975 through to 1990. The mine shut down in April of 1986 and then resumed production in September, 1987. Estimated annual employment was 170 people. The mine, which was located in Daniel's Harbour, produced zinc.",Inactive,1974–1990,
SK-MINCAN-a9ccaf03,,Estevan ,Saskatchewan,49.12002,-102.974284341084,Coal,,Inactive,1975–1983,
SK-MINCAN-46642fd3,Rabbit Lake,Wollaston Lake,Saskatchewan,58.196106,-103.710826477565,Uranium,,Inactive,1975–2016,
NU-MINCAN-6e25be66,Nanisivik,Strathcona Sound (Arctie Bay/Nanisivik),Nunavut,73.04444444444444,-84.53722222222223,"Zinc, Lead, Silver","1,577 Mt zinc, 0.123 Mt lead, 0.718 M kg silver from 17.525 Mt of processed ore (Harrison, 2016). Deposit grade of 9.0% Zn, 0.7% Pb, 41 ppm Ag (9.7% metal), depleted, mine site reclaimed (major producer).",Inactive,1976–2002,
MB-MINCAN-1c5a8f02,Westarm,Flin Flon ,Manitoba,54.640277777777776,-101.845,"Copper, Zinc, Gold, Silver",,Inactive,1977–1985; 1994–1997,
ON-MINCAN-898293e4,Lyon Lake Division,Sturgeon Lake,Ontario,49.88704,-90.89011,Copper,,Inactive,1978–1991,
AB-MINCAN-e1786f69,Sil Silica Division,Bruderheim,Alberta,53.9065451988146,-112.924377233027,Silica,,Active,1979–open,
BC-MINCAN-5bfb16c7,Baker,Toodoggone River,British Columbia,57.285277,-127.11055,"Gold, Silver, Copper, Zinc, Lead",,Inactive,1981–1997,
NB-MINCAN-d6566db4,Mount Pleasant ,,New Brunswick,45.43169,-66.81302,"Tungsten, Molybdenum",,Inactive,1983–2013,
BC-MINCAN-b7fec9a9,Canal,Canal Flats,British Columbia,50.05,-115.51777,Gypsum,,Inactive,1984–2007,
ON-MINCAN-3893fbf5,Golden Giant,Marathon ,Ontario,48.69765,-85.90463,"Gold, Silver",,Inactive,1985–2006,
BC-MINCAN-5bb09dc5,Sumas Mtn.,Abbotsford,British Columbia,49.06861,-122.20027,"Shale, Clay",,Inactive,1986–1995,
ON-MINCAN-32ce190b,Glimmer,Matheson ,Ontario,48.52982,-79.69315,Gold,,Inactive,1988–1991,
MB-MINCAN-4d01d065,Namew Lake,Flin Flon ,Manitoba,54.20555555555556,-101.77916666666668,"Nickel, Gold, Silver",,Inactive,1988–1993,
YT-MINCAN-aa85f1bd,Ketza River,Ross River,Yukon,61.53805555555555,-132.2711111111111,"Gold, Silver",129 workers - traditional territory of the Kaska Dene people/// company has gone bankrupt and abandoned the site; leaving taxpayers on the hook for eventual cleanup costs. ,Inactive,1988–1990,
NB-MINCAN-412b5a4d,CNE,Newcastle ,New Brunswick,47.29557,-65.88469,"Copper, Lead, Silver, Zinc",,Inactive,1989–1990,
BC-MINCAN-277cbd31,,Samatosum Mine,British Columbia,51.144444,-119.80944,"Silver, Gold, Zinc, Lead, Copper, Antimony",,Inactive,1989–1992,
ON-MINCAN-94bcea27,Dona Lake,Pickle Lake ,Ontario,51.41475,-90.09447,Gold,,Inactive,1989–1994,
NL-MINCAN-2638781d,Lower Cove,Stephenville,Newfoundland-and-Labrador,48.5301397020446,-59.0317354077068,"Limestone, Dolomite",,Inactive,1990–2016,
NL-MINCAN-be2dd43b,,Baie Verte ,Newfoundland-and-Labrador,49.98361,-56.1925,Asbestos,44 workers,Inactive,1991–1994,
SK-MINCAN-b95775d2,Contact Lake,La Ronge,Saskatchewan,55.418888,-104.873891558581,Gold,,Inactive,1995–1997,
SK-MINCAN-90b1a5c3,Komis,La Ronge,Saskatchewan,56.208336,-103.899999746416,Gold,,Inactive,1995–2012,
NL-MINCAN-32f6b00f,Stog’er Tight,Baie Verte ,Newfoundland-and-Labrador,49.9660971784511,-56.077653845353,"Gold, Silver, Copper, Molybdenum, Zinc",,Inactive,1996–2019,
AB-MINCAN-016edf95,,Amisk Lake,Saskatchewan,54.596010295119,-112.641265732703,"Copper, Zinc",,Inactive,1997–2003,
YT-MINCAN-c2b663ca,Brewery Creek,Dawson Creek,Yukon,68.55,-136.7994445,Gold,peak production periods 145 workers; winter 45 workers,Inactive,1997–2001,
NB-MINCAN-7c7fa51d,Jamer Operation,Bayside,New Brunswick,45.1305985288417,-67.1084264833229,Graphite,,Active,1998–open,
SK-MINCAN-0b2fba54,McArthur River,McArthur River,Saskatchewan,57.766668,-105.081939109775,Uranium,,Inactive,1999–2018,SK-MAIN-d3c471e8
SK-MINCAN-01ca39f8,Taylorton,,Saskatchewan,49.087551,-102.788507214042,Coal,,Inactive,1890–1963,
NS-MINCAN-c514053c,Wentworth,Windsor ,Nova Scotia,44.986234,-64.0908974207825,Gypsum,,Inactive,1875–2011,
SK-MINCAN-74a5434d,Sutherland,Roche Perce,Saskatchewan,49.0687406620135,-102.802198087601,Coal,,Inactive,1878–1955,
NB-MINCAN-f0ca9c7b,Lake George Antimony,Lake George ,New Brunswick,45.84943,-67.03524,Antimony,,Inactive,1880–1996,
BC-MINCAN-74c35642,,Greenwood,British Columbia,49.091388,-118.63972,"Silver, Gold, Lead, Zinc, Copper, Antimony",,Inactive,1893–1989,
NS-MINCAN-c7cdca40,Forest Hill,,Nova Scotia,45.309245,-61.7553788772142,"Gold, Silver",,Inactive,1895–2009,
AB-MINCAN-12e81368,,Canmore ,Alberta,51.0561733827,-115.336297055,Coal,,Inactive,1895–1974,
BC-MINCAN-14ce4b06,Copper Mountain,,British Columbia,49.331,-120.533,"Copper, Gold, Silver",defined as ghost town https://www.explore-mag.com/10_British_Columbia_Ghost_Towns_Forgotten_By_Time,Active,1884–1958; 2011–open,BC-MAIN-599152a0
ON-MINCAN-1e4bb288,Copper Cliff,Copper Cliff ,Ontario,46.47288,-81.07491,Copper,estimate of 260 workers in 2006  ,Inactive,1887–2009,ON-MAIN-63b394c3
QC-MINCAN-41a0bd3c,Black Lake Division/Mine,Black Lake/Thetford Mines ,Quebec,46.025172,-71.367745,"Chrysotile, Talc","Closing of British Canadian asbestos mine, Black Lake, Quebec (production was during 1885-95
and 1996-97)./////////FR:L'approbation obtenue, le processus est amorcé en 1955 et se poursuit jusqu'en 1959. La compagnie Construction Aggregate Corporation a pour mandat de retirer la boue et l'eau du lac par dragage hydraulique. Le tout est pompé jusqu'à un bassin de déposition situé à environ 5 km du lac. Pendant quatre ans, cette compagnie aspire grâce à sa drague baptisée « Fleur de Lys », plus de 30 millions de mètres cubes de boue recouverts de 15 mètres d'eau en moyenne. De plus, le cours de la rivière Bécancour, qui se déverse dans le lac, est détourné et des barrages sont construits pour retenir les eaux et les diriger vers un nouveau lac artificiel, le petit Lac à la Truite. Le chemin de fer et la route nationale sont aussi réinstallés à environ 2 km et demi de leur ancien site.

Parallèlement, un moulin est construit, pouvant traiter plus de 5 000 tonnes de minerai par jour, au coût de 7 700 000 $. Les installations de la nouvelle compagnie sont, dès le départ, des plus modernes et profitent des plus récentes améliorations techniques d'usinage et d'antipollution. Pour rendre opérationnelle cette mine, 32 000 000 $ sont nécessaires. L'expérience administrative et de mise en marché de ses premiers dirigeants et de la compagnie mère lui permettent de connaître une croissance exceptionnellement rapide. Entre 1958 et 1979 près de 60 millions de tonnes de minerai sont extraites. Le 31 juillet 1973, la mine Lac d'amiante annonce par ailleurs une entente de principe avec la mine National visant l'achat des actifs de cette dernière.

Dans les années 80, le secteur de l'amiante est affecté par la récession économique et la campagne de dénigrement de l'amiante. Dans le but de gérer cette problématique, l'industrie de l'amiante connaît une rationalisation des opérations dans la région. Le 1er juillet 1986, débute les opérations de la société en commandite LAB Chrysotile, pour permettre une relance de l'industrie minière. Celle-ci vise la gestion et l'exploitation de trois compagnies, dont la Lac d'amiante du Québec ltée (dont le nom est francisé dans les années 1970). La Lac d'amiante a été la dernière mine d'amiante en activité dans la région avant sa fermeture en 2012 due au retrait de ses subventions.Formerly: Mine Lac d'Amiante (Lake Asbestos mine; LAB mine; Black Lake mine), Black Lake, Mégantic Co., Québec, Canada. Before Black Lake, a lake that occupied the site was drained, the asbestos orebody was explored underground by United Asbestos Corp. Ltd.(see photos).

Technically both with the limits of Thetford Mines and Saint-Joseph-de-Coleraine the mine falls mostly within Saint-Joseph-de-Coleraine. The former municipality of Black Lake is now part of the town of Thetford Mines.

An asbestos mine in serpentinized peridotite, Thetford mines ophiolite complex. Operated by LAB Chrysotile (LAB = Lake Asbestos Bell), this is a huge, inactive open pit mine (closed in 2011). In recent years many labels show ""LAB mine"" as the locality which reflects the preference of many local collectors.
Also erroneously known as ""Black Lake Mine"". ////////////Lake Asbestos of Quebec, operated by Lake Asbestos of Quebec Ltd., Black Lake, Quebec. Years operational 1888 – 2011. according to law suit https://www.brownlawyers.ca/canadian-asbestos-mines.html",Inactive,1888–2011,
ON-MINCAN-d0c33322,Ellen or Helen,,Ontario,46.429667,-81.323211,"Copper, Nickel","""The early mine was established on Boyer Lake, named after Benjamin Boyer, at the foot of the Helen Mountain. A town was situated above the mine on a large plateau 45 metres above. Work in the early years was hard and perilous and wages were paltry. In 1900 the total wage payroll for the year was only $107,535, and this was divided between the 430 or so employees. In the end the average employee was paid $245 per annum, a low wage. In Sudbury area nickel mines an underground worker would receive a comparable wage on a monthly basis.""  from https://www.ghosttownpix.com/ontario/towns/helen.html //// debatable closure date: 1996 versus 1996 in different sources",Inactive,1900–1996; 2004–2016,
ON-MINCAN-8c35080f,Young-Davidson,Matachewan,Ontario,47.948757,-80.69286,Copper,"there is no clear proof that the Young-Davidson mine was owned by min-ore but it was in Matachewan and produce gold. However, it select it because it appears for the full period in the maps. ////https://en.wikipedia.org/wiki/Young-Davidson_mine",Active,1917–1957; 2010–open,ON-MAIN-7607a50e
QC-MINCAN-53f0ce5a,East Amphi,,Quebec,48.1680555556,-78.1272222222,"Gold, Silver",Many more owners,Inactive,1941–1974; 1979–2007,
ON-MINCAN-838ef03f,Fraser,Falconbridge ,Ontario,46.66321,-81.34057,Nickel,Uncertain production years,Active,1962–1991; 2007–2009; 2010–open,ON-MAIN-206041d1
BC-MINCAN-595f5049,Myra Falls,Myra Falls ,British Columbia,49.567499,-125.605,"Copper, Zinc, Lead, Gold, Silver, Cadmium",,Active,1966–1985; 2002–2015; 2019–open,BC-MAIN-23155c25
NS-MINCAN-6a05d790,Point Aconi,Point Aconi ,Nova Scotia,46.31833,-60.30611,Coal,,Inactive,1975–2013,
AB-MINCAN-8c04cfcc,Paintearth,Forestburg ,Alberta,52.4810652797999,-112.219718025999,Coal,,Inactive,1978–2021,
NS-MINCAN-e1d56e14,Scotia,,Nova Scotia,45.0303,-63.34,"Zinc, Lead",,Inactive,1979–1985; 2007–2009,
NB-MINCAN-5287c000,Piccadilly,Sussex,New Brunswick,45.7515,-65.4162,Salt,more than 400 jobs lost,Inactive,1986–2016,
ON-MINCAN-266b1776,Holt-McDermott,Kirkland Lake ,Ontario,48.5101,-79.74016,Gold,,Active,1988–open,
NS-MINCAN-7b9a0273,Sugar Camp,River Denys ,Nova Scotia,45.708157,-61.3170204148798,Gypsum,"The company opened a new quarry in 1992 in Sugar Camp as the Big Brook operation wound down. It was estimated at the time that the Sugar Camp deposit contained at least 50 million tonnes of gypsum and the plan was to extract about one million tonnes per year. /// The Melford and Sugar Camp quarries were both idled in 2011, mainly due to the 2009 collapse of the United States housing market. With fewer homes being built, and less demand for wallboard, there was less demand for gypsum. source: notyourgrandfather...",Inactive,1992–2011,
QC-MINCAN-940990db,,St. Adolphe de Dudswell ,Quebec,45.63318,-71.59098,Lime,"""The Marbleton Plant, one of the oldest lime production facilities in North America, is equipped with modern and efficient production equipment. For limestone, the plant draws on an extensive ocean reef deposit which has been quarried since 1824."" /////////// https://www.latribune.ca/2020/07/03/un-poumon-economique-deux-fois-centenaire-a1f509650a0601c4556fd23d0cef011e",Active,1824–open,
NS-MINCAN-4ed2d911,,Walton ,Nova Scotia,45.2305704711816,-64.0063315080475,Gypsum,"1966: Formation of Cape Breton Development Corporation to revitalize mining in the Sydney coal field, Nova Scotia. 1968: Cape Breton Development Corporation takes over operations of remaining mines in Sydney coal field, Nova Scotia.",Inactive,1810–1972,
