npv_id,main_id,name,latitude,longitude,biome_type,geometry
NL-MAIN-251d6364,NL-MAIN-251d6364,Beaver Brook,48.715909,-55.196,Cool Mixed Forest,POINT (-55.196 48.715909)
NL-MAIN-842ba1b4,NL-MAIN-842ba1b4,Nugget Pond,49.845,-55.7753,,POINT (-55.7753 49.845)
NL-MAIN-c139de6d,NL-MAIN-c139de6d,Ming,49.915,-56.087,Cool Mixed Forest,POINT (-56.087 49.915)
NL-MAIN-f021107e,NL-MAIN-f021107e,Point Rousse,49.96142,-56.124447,Cool Mixed Forest,POINT (-56.124447 49.96142)
NL-MAIN-2d8801d6,NL-MAIN-2d8801d6,Voisey’s Bay,56.331659,-62.090855,Cold Evergreen Needleleaf Forest,POINT (-62.090855 56.331659)
NL-MAIN-b64bae7a,NL-MAIN-b64bae7a,Scully,52.907129,-66.912573,Cold Evergreen Needleleaf Forest,POINT (-66.912573 52.907129)
NL-MAIN-dd723db4,NL-MAIN-dd723db4,Carol Lake,53.039755,-66.936774,Cold Evergreen Needleleaf Forest,POINT (-66.936774 53.039755)
NL-MAIN-e09881ff,NL-MAIN-e09881ff,DSO (3 and 4),54.890828,-67.081916,Cold Evergreen Needleleaf Forest,POINT (-67.081916 54.890828)
NS-MAIN-c9c77a59,NS-MAIN-c9c77a59,Moose River Consolidated,44.98243,-62.94292,Cool Mixed Forest,POINT (-62.94292 44.98243)
NS-MAIN-baf0bfbd,NS-MAIN-baf0bfbd,Donkin,46.178108,-59.825861,Cool Mixed Forest,POINT (-59.825861 46.178108)
NS-MAIN-fb4e8e94,NS-MAIN-fb4e8e94,Stellarton,45.566074,-62.682864,Cool Mixed Forest,POINT (-62.682864 45.566074)
QC-MAIN-e82266c5,QC-MAIN-e82266c5,Lac Tio,50.5541,-63.416,Cold Evergreen Needleleaf Forest,POINT (-63.416 50.5541)
QC-MAIN-089f3c60,QC-MAIN-089f3c60,Bloom Lake,52.84,-67.28,,POINT (-67.28 52.84)
QC-MAIN-084bd95c,QC-MAIN-084bd95c,Mont-Wright,52.757053,-67.330058,Cold Evergreen Needleleaf Forest,POINT (-67.330058 52.757053)
QC-MAIN-b8c826a2,QC-MAIN-b8c826a2,DSO (Goodwood),55.09939,-67.34778,Cold Evergreen Needleleaf Forest,POINT (-67.34778 55.09939)
QC-MAIN-33c09b8b,QC-MAIN-33c09b8b,Fire Lake,52.352998,-67.363935,Cold Evergreen Needleleaf Forest,POINT (-67.363935 52.352998)
QC-MAIN-a555d9b9,QC-MAIN-a555d9b9,Niobec,48.532148,-71.156929,Cool Mixed Forest,POINT (-71.156929 48.532148)
QC-MAIN-a97821c0,QC-MAIN-a97821c0,Raglan,61.687171,-73.674669,Low and High Shrub Tundra,POINT (-73.674669 61.687171)
QC-MAIN-5ce331b8,QC-MAIN-5ce331b8,Nunavik Nickel,61.420856,-74.1375,Low and High Shrub Tundra,POINT (-74.1375 61.420856)
QC-MAIN-6dc537e6,QC-MAIN-6dc537e6,Éléonore,52.69889,-76.08667,Cold Evergreen Needleleaf Forest,POINT (-76.08667 52.69889)
QC-MAIN-f9e41c2a,QC-MAIN-f9e41c2a,Lamaque,48.079221,-77.739624,Cool Mixed Forest,POINT (-77.739624 48.079221)
QC-MAIN-dc1a16f9,QC-MAIN-dc1a16f9,North American Lithium,48.4115,-77.80934,,POINT (-77.80934 48.4115)
QC-MAIN-c0660aec,QC-MAIN-c0660aec,Goldex,48.0926,-77.8733,,POINT (-77.8733 48.0926)
QC-MAIN-9de9bb0d,QC-MAIN-9de9bb0d,Kiena,48.12,-77.91,,POINT (-77.91 48.12)
QC-MAIN-d29e0839,QC-MAIN-d29e0839,Sleeping Giant,49.13259,-77.97434,Cool Mixed Forest,POINT (-77.97434 49.13259)
QC-MAIN-e7e6a960,QC-MAIN-e7e6a960,Canadian Malartic,48.122223,-78.130824,Cool Mixed Forest,POINT (-78.130824 48.122223)
QC-MAIN-e51eda66,QC-MAIN-e51eda66,LaRonde,48.2516,-78.428,Cool Mixed Forest,POINT (-78.428 48.2516)
QC-MAIN-02884fb5,QC-MAIN-02884fb5,Westwood-Doyon,48.256,-78.502,Cool Mixed Forest,POINT (-78.502 48.256)
QC-MAIN-b86f7d07,QC-MAIN-b86f7d07,Casa Berardi,49.5719,-79.231307,Cool Mixed Forest,POINT (-79.231307 49.5719)
QC-MAIN-3032c251,QC-MAIN-3032c251,Renard,52.813913,-72.190579,Cold Evergreen Needleleaf Forest,POINT (-72.190579 52.813913)
ON-MAIN-aeafbb59,ON-MAIN-aeafbb59,Detour Lake,50.018143,-79.717631,Cool Evergreen Needleleaf Forest,POINT (-79.717631 50.018143)
ON-MAIN-1f126a43,ON-MAIN-1f126a43,Macassa,48.142528,-80.071637,Cool Mixed Forest,POINT (-80.071637 48.142528)
ON-MAIN-4e0734b5,ON-MAIN-4e0734b5,Fox Complex,48.534362,-80.340814,Cool Mixed Forest,POINT (-80.340814 48.534362)
ON-MAIN-7607a50e,ON-MAIN-7607a50e,Young-Davidson,47.94667,-80.67444,Cool Mixed Forest,POINT (-80.67444 47.94667)
ON-MAIN-fcb287a4,ON-MAIN-fcb287a4,Nickel Rim South,46.657982,-80.796793,Cool Mixed Forest,POINT (-80.796793 46.657982)
ON-MAIN-48fe2205,ON-MAIN-48fe2205,Garson,46.568,-80.857,Cool Mixed Forest,POINT (-80.857 46.568)
ON-MAIN-de2f9639,ON-MAIN-de2f9639,Clarabelle,46.495822,-81.056782,Cool Mixed Forest,POINT (-81.056782 46.495822)
ON-MAIN-f080c409,ON-MAIN-f080c409,Copper Cliff Complex,46.491445,-81.068205,Cool Mixed Forest,POINT (-81.068205 46.491445)
ON-MAIN-538513cd,ON-MAIN-538513cd,Hoyle Pond,48.5519,-81.1083,Cool Mixed Forest,POINT (-81.1083 48.5519)
ON-MAIN-bfbcd72e,ON-MAIN-bfbcd72e,Bell Creek,48.553,-81.178,Cool Mixed Forest,POINT (-81.178 48.553)
ON-MAIN-52224e1e,ON-MAIN-52224e1e,Creighton,46.474,-81.1861,Cool Mixed Forest,POINT (-81.1861 46.474)
ON-MAIN-3b3e5365,ON-MAIN-3b3e5365,Porcupine,48.463511,-81.242719,Cool Mixed Forest,POINT (-81.242719 48.463511)
ON-MAIN-8629a493,ON-MAIN-8629a493,Hollinger,48.4733,-81.31314,Cool Mixed Forest,POINT (-81.31314 48.4733)
ON-MAIN-6e9b2449,ON-MAIN-6e9b2449,Coleman,46.6771,-81.3397,Cool Mixed Forest,POINT (-81.3397 46.6771)
ON-MAIN-206041d1,ON-MAIN-206041d1,Fraser,46.6633,-81.3404,Cool Mixed Forest,POINT (-81.3404 46.6633)
ON-MAIN-ed85ac94,ON-MAIN-ed85ac94,Strathcona,46.6734,-81.3427,Cool Mixed Forest,POINT (-81.3427 46.6734)
ON-MAIN-f8313ebd,ON-MAIN-f8313ebd,Kidd Creek,48.6894,-81.37,Cool Mixed Forest,POINT (-81.37 48.6894)
ON-MAIN-7001a391,ON-MAIN-7001a391,McCreedy West,46.638059,-81.39894,Cool Mixed Forest,POINT (-81.39894 46.638059)
ON-MAIN-28f3f0fc,ON-MAIN-28f3f0fc,Totten,46.381174,-81.454839,Cool Mixed Forest,POINT (-81.454839 46.381174)
ON-MAIN-f3e6ff08,ON-MAIN-f3e6ff08,Timmins West,48.383275,-81.549826,Cool Mixed Forest,POINT (-81.549826 48.383275)
ON-MAIN-1c674cd0,ON-MAIN-1c674cd0,Borden,47.871883,-83.260981,Cool Mixed Forest,POINT (-83.260981 47.871883)
ON-MAIN-687b8c8d,ON-MAIN-687b8c8d,Island,48.285667,-84.449604,Cool Mixed Forest,POINT (-84.449604 48.285667)
ON-MAIN-8825d90d,ON-MAIN-8825d90d,Magino,48.28869,-84.45744,Cool Mixed Forest,POINT (-84.45744 48.28869)
ON-MAIN-f4fc3276,ON-MAIN-f4fc3276,Sugar Zone,48.80496,-85.00401,Cool Mixed Forest,POINT (-85.00401 48.80496)
ON-MAIN-c5fefb01,ON-MAIN-c5fefb01,Mishi,48.11028,-85.4525,Cool Mixed Forest,POINT (-85.4525 48.11028)
ON-MAIN-cb85213a,ON-MAIN-cb85213a,Eagle River,47.9861,-85.4619,Cool Mixed Forest,POINT (-85.4619 47.9861)
ON-MAIN-6e9be24e,ON-MAIN-6e9be24e,Hemlo (Williams),48.695726,-85.91598,Cool Mixed Forest,POINT (-85.91598 48.695726)
ON-MAIN-a3c56a83,ON-MAIN-a3c56a83,Lac des Iles,49.1691,-89.6105,Cold Evergreen Needleleaf Forest,POINT (-89.6105 49.1691)
ON-MAIN-fefeaee4,ON-MAIN-fefeaee4,Musselwhite,52.6127,-90.3636,Cold Evergreen Needleleaf Forest,POINT (-90.3636 52.6127)
ON-MAIN-7f050560,ON-MAIN-7f050560,Red Lake,51.050557,-93.732922,Cool Mixed Forest,POINT (-93.732922 51.050557)
ON-MAIN-0aadf28f,ON-MAIN-0aadf28f,Rainy River,48.833,-94.012,Cool Mixed Forest,POINT (-94.012 48.833)
MB-MAIN-915d9faa,MB-MAIN-915d9faa,Tanco,50.4291,-95.4502,Cool Mixed Forest,POINT (-95.4502 50.4291)
MB-MAIN-e0a6250e,MB-MAIN-e0a6250e,Thompson (T-1 and T-3),55.7152,-97.8444,Cold Evergreen Needleleaf Forest,POINT (-97.8444 55.7152)
MB-MAIN-0898e255,MB-MAIN-0898e255,Stall Lake,54.85692,-99.9451,Cold Evergreen Needleleaf Forest,POINT (-99.9451 54.85692)
MB-MAIN-da0b5c3d,MB-MAIN-da0b5c3d,New Britannia,54.886349,-100.024002,,POINT (-100.024002 54.886349)
MB-MAIN-be5b3dc8,MB-MAIN-be5b3dc8,Lalor Lake,54.86667,-100.13333,Cold Evergreen Needleleaf Forest,POINT (-100.13333 54.86667)
SK-MAIN-22ce14be,SK-MAIN-22ce14be,Santoy,55.66778,-103.414571,Cold Evergreen Needleleaf Forest,POINT (-103.414571 55.66778)
SK-MAIN-29afbdb5,SK-MAIN-29afbdb5,Seabee,55.683772,-103.622257,,POINT (-103.622257 55.683772)
SK-MAIN-60ba74c4,SK-MAIN-60ba74c4,McClean Lake,58.3472,-103.8361,Cold Evergreen Needleleaf Forest,POINT (-103.8361 58.3472)
SK-MAIN-91cf5448,SK-MAIN-91cf5448,Cigar Lake,58.06819,-104.54123,Cold Evergreen Needleleaf Forest,POINT (-104.54123 58.06819)
SK-MAIN-d3c471e8,SK-MAIN-d3c471e8,McArthur River,57.7637,-105.053,Cold Evergreen Needleleaf Forest,POINT (-105.053 57.7637)
SK-MAIN-bb89158f,SK-MAIN-bb89158f,Key Lake,57.207,-105.647,Cold Evergreen Needleleaf Forest,POINT (-105.647 57.207)
SK-MAIN-ae4fcc15,SK-MAIN-ae4fcc15,Estevan,49.087329,-102.864956,Steppe,POINT (-102.864956 49.087329)
SK-MAIN-a35bfc1b,SK-MAIN-a35bfc1b,Poplar River,49.217566,-105.472585,Steppe,POINT (-105.472585 49.217566)
AB-MAIN-526c6c76,AB-MAIN-526c6c76,Genesee,53.323876,-114.267236,Cold Evergreen Needleleaf Forest,POINT (-114.267236 53.323876)
AB-MAIN-0c614cfb,AB-MAIN-0c614cfb,Coal Valley,53.072796,-116.786616,Cold Evergreen Needleleaf Forest,POINT (-116.786616 53.072796)
AB-MAIN-a67a8e37,AB-MAIN-a67a8e37,Vista,53.403506,-117.36642,Cold Evergreen Needleleaf Forest,POINT (-117.36642 53.403506)
AB-MAIN-ddfda037,AB-MAIN-ddfda037,Grande Cache,54.0333,-119.1667,Cold Evergreen Needleleaf Forest,POINT (-119.1667 54.0333)
AB-MAIN-eec2cd4c,AB-MAIN-eec2cd4c,Kearl,57.396911,-111.066731,Cold Evergreen Needleleaf Forest,POINT (-111.066731 57.396911)
AB-MAIN-7dabaf6e,AB-MAIN-7dabaf6e,Millennium and Steepbank,56.8719,-111.34,Cold Evergreen Needleleaf Forest,POINT (-111.34 56.8719)
AB-MAIN-70af0605,AB-MAIN-70af0605,Jackpine,57.2490361111111,-111.379855555556,Cold Evergreen Needleleaf Forest,POINT (-111.379855555556 57.2490361111111)
AB-MAIN-c42b8de9,AB-MAIN-c42b8de9,Aurora North and South,57.3134,-111.458,Cold Evergreen Needleleaf Forest,POINT (-111.458 57.3134)
AB-MAIN-5ce71d64,AB-MAIN-5ce71d64,Mildred Lake,57.0,-111.4667,Cold Evergreen Needleleaf Forest,POINT (-111.4667 57)
AB-MAIN-e4a2cc7b,AB-MAIN-e4a2cc7b,Muskeg River,57.2465,-111.512,Cold Evergreen Needleleaf Forest,POINT (-111.512 57.2465)
AB-MAIN-3f0e46be,AB-MAIN-3f0e46be,Fort Hills,57.3952,-111.572,Cold Evergreen Needleleaf Forest,POINT (-111.572 57.3952)
AB-MAIN-f7556a3a,AB-MAIN-f7556a3a,Horizon,57.3382333333333,-111.774947222222,Cold Evergreen Needleleaf Forest,POINT (-111.774947222222 57.3382333333333)
BC-MAIN-4724f4ba,BC-MAIN-4724f4ba,Elk,49.8538,-120.31487,Cold Evergreen Needleleaf Forest,POINT (-120.31487 49.8538)
BC-MAIN-aa76f6f2,BC-MAIN-aa76f6f2,New Afton,50.661,-120.514,Temperate Evergreen Needleleaf Open Woodland,POINT (-120.514 50.661)
BC-MAIN-599152a0,BC-MAIN-599152a0,Copper Mountain,49.331,-120.533,Cool Evergreen Needleleaf Forest,POINT (-120.533 49.331)
BC-MAIN-bf503b6b,BC-MAIN-bf503b6b,Highland Valley,50.4855,-121.0483,Cool Evergreen Needleleaf Forest,POINT (-121.0483 50.4855)
BC-MAIN-3f490561,BC-MAIN-3f490561,Mount Polley,52.544959,-121.633931,Cold Evergreen Needleleaf Forest,POINT (-121.633931 52.544959)
BC-MAIN-6b4800fe,BC-MAIN-6b4800fe,Gibraltar,52.528495,-122.28716,Cold Evergreen Needleleaf Forest,POINT (-122.28716 52.528495)
BC-MAIN-ed23117f,BC-MAIN-ed23117f,Mount Milligan,55.118,-124.031,Cold Evergreen Needleleaf Forest,POINT (-124.031 55.118)
BC-MAIN-23155c25,BC-MAIN-23155c25,Myra Falls,49.57,-125.59,Cool Evergreen Needleleaf Forest,POINT (-125.59 49.57)
BC-MAIN-8eb8be0d,BC-MAIN-8eb8be0d,Red Chris,57.7,-129.78333,Cold Evergreen Needleleaf Forest,POINT (-129.78333 57.7)
BC-MAIN-857b7b89,BC-MAIN-857b7b89,Brucejack,56.47554,-130.21783,Low and High Shrub Tundra,POINT (-130.21783 56.47554)
BC-MAIN-9e101b16,BC-MAIN-9e101b16,Line Creek,49.95,-114.7833,Cold Evergreen Needleleaf Forest,POINT (-114.7833 49.95)
BC-MAIN-48ad5435,BC-MAIN-48ad5435,Elkview,49.7431,-114.805,Cold Evergreen Needleleaf Forest,POINT (-114.805 49.7431)
BC-MAIN-c202b377,BC-MAIN-c202b377,Fording River,50.19817,-114.830862,Cold Evergreen Needleleaf Forest,POINT (-114.830862 50.19817)
BC-MAIN-2c4ceca5,BC-MAIN-2c4ceca5,Greenhills,50.117858,-114.877193,Cold Evergreen Needleleaf Forest,POINT (-114.877193 50.117858)
BC-MAIN-afd7eec5,BC-MAIN-afd7eec5,Wolverine,55.0861,-121.2453,Cold Evergreen Needleleaf Forest,POINT (-121.2453 55.0861)
BC-MAIN-becbbe67,BC-MAIN-becbbe67,Brule,55.398,-121.832,Cold Evergreen Needleleaf Forest,POINT (-121.832 55.398)
BC-MAIN-fb4d0c45,BC-MAIN-fb4d0c45,Willow Creek,55.607,-122.2222,Cold Evergreen Needleleaf Forest,POINT (-122.2222 55.607)
YT-MAIN-44857446,YT-MAIN-44857446,Keno Hill Silver District,63.9167,-135.4833,Cold Evergreen Needleleaf Forest,POINT (-135.4833 63.9167)
YT-MAIN-e05ed9fe,YT-MAIN-e05ed9fe,Eagle (Dublin Gulch),64.0322,-135.8456,Cold Evergreen Needleleaf Forest,POINT (-135.8456 64.0322)
YT-MAIN-752fbcae,YT-MAIN-752fbcae,Minto,62.618875,-137.23858,Cold Evergreen Needleleaf Forest,POINT (-137.23858 62.618875)
NT-MAIN-94e652a5,NT-MAIN-94e652a5,Gahcho Kué,63.44528,-109.21194,Cold Evergreen Needleleaf Forest,POINT (-109.21194 63.44528)
NT-MAIN-0ec39ce0,NT-MAIN-0ec39ce0,Diavik,64.495,-110.272,Cold Evergreen Needleleaf Forest,POINT (-110.272 64.495)
NT-MAIN-6c1d6ee6,NT-MAIN-6c1d6ee6,Ekati,64.715,-110.618,Cold Evergreen Needleleaf Forest,POINT (-110.618 64.715)
NU-MAIN-5154702a,NU-MAIN-5154702a,Mary River,71.340446,-78.556869,Graminoid and Forb Tundra,POINT (-78.556869 71.340446)
NU-MAIN-8b0264c9,NU-MAIN-8b0264c9,Meliadine,63.031529,-92.220206,Cold Evergreen Needleleaf Forest,POINT (-92.220206 63.031529)
NU-MAIN-730aefe3,NU-MAIN-730aefe3,Meadowbank,65.0199956,-96.071313,Low and High Shrub Tundra,POINT (-96.071313 65.0199956)
NU-MAIN-4ea8ac9d,NU-MAIN-4ea8ac9d,Amaruq,65.415,-96.697,,POINT (-96.697 65.415)
NL-MAIN-d9036091,NL-MAIN-d9036091,Long Harbour,47.410938,-53.811792,Cool Mixed Forest,POINT (-53.811792 47.410938)
QC-MAIN-8d6616b4,QC-MAIN-8d6616b4,Alouette,50.1571,-66.4429,Cool Mixed Forest,POINT (-66.4429 50.1571)
QC-MAIN-52c01ae4,QC-MAIN-52c01ae4,Baie-Comeau,49.2562,-68.1491,Cool Mixed Forest,POINT (-68.1491 49.2562)
QC-MAIN-01c1e81f,QC-MAIN-01c1e81f,Grande-Baie,48.3058,-70.9258,Cool Mixed Forest,POINT (-70.9258 48.3058)
QC-MAIN-c0e3a48b,QC-MAIN-c0e3a48b,Laterrière,48.3013,-71.1287,Cool Mixed Forest,POINT (-71.1287 48.3013)
QC-MAIN-92628f16,QC-MAIN-92628f16,Vaudreuil,48.428476,-71.157919,Cool Mixed Forest,POINT (-71.157919 48.428476)
QC-MAIN-c1c7eb99,QC-MAIN-c1c7eb99,Arvida,48.430174,-71.165521,Cool Mixed Forest,POINT (-71.165521 48.430174)
QC-MAIN-3aa117d8,QC-MAIN-3aa117d8,Alma,48.5847,-71.6897,Cool Mixed Forest,POINT (-71.6897 48.5847)
QC-MAIN-eac5a52b,QC-MAIN-eac5a52b,Deschambault,46.6939,-71.9467,Cool Mixed Forest,POINT (-71.9467 46.6939)
QC-MAIN-c8966bdc,QC-MAIN-c8966bdc,Bécancour,46.381,-72.3852,Cool Mixed Forest,POINT (-72.3852 46.381)
QC-MAIN-529c96b4,QC-MAIN-529c96b4,CCR,45.627518,-73.511778,Cool Mixed Forest,POINT (-73.511778 45.627518)
QC-MAIN-4f03382f,QC-MAIN-4f03382f,Sainte-Catherine,45.402369,-73.601869,Cool Mixed Forest,POINT (-73.601869 45.402369)
QC-MAIN-abb3e1c7,QC-MAIN-abb3e1c7,General Smelting Company of Canada,45.448518,-73.676345,Cool Mixed Forest,POINT (-73.676345 45.448518)
QC-MAIN-de3d8b7b,QC-MAIN-de3d8b7b,Canadian Electrolytic Zinc Limited (CEZinc),45.228312,-74.097205,,POINT (-74.097205 45.228312)
QC-MAIN-30c1828c,QC-MAIN-30c1828c,Horne,48.2534,-79.0151,Cool Mixed Forest,POINT (-79.0151 48.2534)
ON-MAIN-dca9cce7,ON-MAIN-dca9cce7,Ottawa,45.431332,-75.69922,,POINT (-75.69922 45.431332)
ON-MAIN-237587f6,ON-MAIN-237587f6,Port Hope,43.9429,-78.2943,,POINT (-78.2943 43.9429)
ON-MAIN-2e13aaa0,ON-MAIN-2e13aaa0,Port Colborne,42.883,-79.24,Cool Mixed Forest,POINT (-79.24 42.883)
ON-MAIN-137bbc71,ON-MAIN-137bbc71,Mississauga,43.60506,-79.57979,Cool Mixed Forest,POINT (-79.57979 43.60506)
ON-MAIN-b466361f,ON-MAIN-b466361f,Mississauga,43.7058,-79.6671,Cool Mixed Forest,POINT (-79.6671 43.7058)
ON-MAIN-e928d96a,ON-MAIN-e928d96a,Brampton,43.691066,-79.722125,Cool Mixed Forest,POINT (-79.722125 43.691066)
ON-MAIN-40ce0593,ON-MAIN-40ce0593,Sudbury,46.5763,-80.7993,Cool Mixed Forest,POINT (-80.7993 46.5763)
ON-MAIN-63b394c3,ON-MAIN-63b394c3,Copper Cliff Complex,46.4801,-81.0569,Cool Mixed Forest,POINT (-81.0569 46.4801)
ON-MAIN-484e4fa3,ON-MAIN-484e4fa3,Blind River,46.180896,-83.017246,Cool Mixed Forest,POINT (-83.017246 46.180896)
AB-MAIN-d3a4aba9,AB-MAIN-d3a4aba9,The Cobalt Refinery Company Inc.,53.719929,-113.19011,Cold Evergreen Needleleaf Forest,POINT (-113.19011 53.719929)
AB-MAIN-8434dce0,AB-MAIN-8434dce0,Baymag,51.060022,-115.210061,Cold Evergreen Needleleaf Forest,POINT (-115.210061 51.060022)
BC-MAIN-3bb6b7cd,BC-MAIN-3bb6b7cd,Trail,49.0999,-117.7137,Cool Evergreen Needleleaf Forest,POINT (-117.7137 49.0999)
BC-MAIN-d9e2f362,BC-MAIN-d9e2f362,Richmond,49.194196,-123.092001,,POINT (-123.092001 49.194196)
BC-MAIN-eb47f7c7,BC-MAIN-eb47f7c7,Kitimat,53.9976,-128.6954,Cool Evergreen Needleleaf Forest,POINT (-128.6954 53.9976)
QC-MAIN-5398dfac,QC-MAIN-5398dfac,Elkem Chicoutimi,48.412769,-71.131239,Cool Mixed Forest,POINT (-71.131239 48.412769)
QC-MAIN-649d2873,QC-MAIN-649d2873,Niobec Converter,48.531738,-71.158168,Cool Mixed Forest,POINT (-71.158168 48.531738)
QC-MAIN-c1cc9f7c,QC-MAIN-c1cc9f7c,Becancour Silicon,46.37,-72.39,Cool Mixed Forest,POINT (-72.39 46.37)
ON-MAIN-470b504b,ON-MAIN-470b504b,Ottawa Plant,45.298042,-75.562391,Cool Mixed Forest,POINT (-75.562391 45.298042)
QC-MAIN-e25eed27,QC-MAIN-e25eed27,Port-Cartier,50.03213,-66.797531,Cool Mixed Forest,POINT (-66.797531 50.03213)
QC-MAIN-6a26086e,QC-MAIN-6a26086e,Sorel Forge,46.045865,-73.124998,Cool Mixed Forest,POINT (-73.124998 46.045865)
QC-MAIN-3e146840,QC-MAIN-3e146840,Rio Tinto Iron and Titanium,46.045907,-73.138424,Cool Mixed Forest,POINT (-73.138424 46.045907)
QC-MAIN-1eee4ace,QC-MAIN-1eee4ace,Contrecœur East,45.837723,-73.249081,Cool Mixed Forest,POINT (-73.249081 45.837723)
QC-MAIN-844dcc47,QC-MAIN-844dcc47,Contrecœur West,45.819938,-73.263268,Cool Mixed Forest,POINT (-73.263268 45.819938)
ON-MAIN-fc6f1a44,ON-MAIN-fc6f1a44,Ivaco Rolling Mills,45.6119,-74.704435,Cool Mixed Forest,POINT (-74.704435 45.6119)
ON-MAIN-21b6ab35,ON-MAIN-21b6ab35,Whitby Mill,43.86,-78.91,Cool Mixed Forest,POINT (-78.91 43.86)
ON-MAIN-387b06fe,ON-MAIN-387b06fe,Welland Mill,42.998265,-79.235065,Cool Mixed Forest,POINT (-79.235065 42.998265)
ON-MAIN-4c35e094,ON-MAIN-4c35e094,ArcelorMittal Dofasco,43.269132,-79.805204,Cool Mixed Forest,POINT (-79.805204 43.269132)
ON-MAIN-020a683c,ON-MAIN-020a683c,Hamilton Works,43.275,-79.819,Cool Mixed Forest,POINT (-79.819 43.275)
ON-MAIN-b2e5c9bb,ON-MAIN-b2e5c9bb,Lake Erie Works,42.8001,-80.0937,Cool Mixed Forest,POINT (-80.0937 42.8001)
ON-MAIN-bddeaef0,ON-MAIN-bddeaef0,Cambridge Mill,43.37,-80.28,Cool Mixed Forest,POINT (-80.28 43.37)
ON-MAIN-eab8c362,ON-MAIN-eab8c362,Algoma Steel,46.52055,-84.36664,Cool Mixed Forest,POINT (-84.36664 46.52055)
MB-MAIN-b4ca1426,MB-MAIN-b4ca1426,Manitoba Mill,50.130273,-96.893633,Cool Mixed Forest,POINT (-96.893633 50.130273)
SK-MAIN-26b9aaf3,SK-MAIN-26b9aaf3,EVRAZ Regina,50.515263,-104.623843,Steppe,POINT (-104.623843 50.515263)
AB-MAIN-9fed34a8,AB-MAIN-9fed34a8,AltaSteel,53.492783,-113.387962,Cold Evergreen Needleleaf Forest,POINT (-113.387962 53.492783)
NB-MAIN-9e0c4fb2,NB-MAIN-9e0c4fb2,AIM Recycling Atlantic,45.261306,-66.064603,Cool Mixed Forest,POINT (-66.064603 45.261306)
QC-MAIN-15d7c629,QC-MAIN-15d7c629,AIM Recycling Lévis,46.74789,-71.177734,Cool Mixed Forest,POINT (-71.177734 46.74789)
QC-MAIN-30ff61c3,QC-MAIN-30ff61c3,Contrecœur-Feruni,45.83316,-73.260949,Cool Mixed Forest,POINT (-73.260949 45.83316)
QC-MAIN-abe563b5,QC-MAIN-abe563b5,AIM Recycling La Prairie,45.396324,-73.500867,Cool Mixed Forest,POINT (-73.500867 45.396324)
QC-MAIN-41bf5ea5,QC-MAIN-41bf5ea5,AIM Recycling Montréal-Est,45.6309,-73.5522,Cool Mixed Forest,POINT (-73.5522 45.6309)
QC-MAIN-bebff037,QC-MAIN-bebff037,A.S.I. - Ste Catherine,45.397642,-73.60497,Cool Mixed Forest,POINT (-73.60497 45.397642)
QC-MAIN-a1159813,QC-MAIN-a1159813,AIM Recycling Laval,45.66641,-73.644813,Cool Mixed Forest,POINT (-73.644813 45.66641)
ON-MAIN-8056a739,ON-MAIN-8056a739,AIM Recycling Ottawa East,45.407485,-75.606364,Cool Mixed Forest,POINT (-75.606364 45.407485)
ON-MAIN-4440c34c,ON-MAIN-4440c34c,Smiths Falls Operation,44.912968,-76.063979,Cool Mixed Forest,POINT (-76.063979 44.912968)
ON-MAIN-6bd6cc80,ON-MAIN-6bd6cc80,Kingston Operation,44.2615,-76.5121,Cool Mixed Forest,POINT (-76.5121 44.2615)
ON-MAIN-92cdea80,ON-MAIN-92cdea80,Whitby Division,43.851906,-78.910676,Cool Mixed Forest,POINT (-78.910676 43.851906)
ON-MAIN-75f260ea,ON-MAIN-75f260ea,Brampton Division,43.736239,-79.666841,Cool Mixed Forest,POINT (-79.666841 43.736239)
ON-MAIN-9623499f,ON-MAIN-9623499f,AIM Recycling Hamilton,43.259378,-79.778036,Cool Mixed Forest,POINT (-79.778036 43.259378)
ON-MAIN-59a49b3e,ON-MAIN-59a49b3e,Hamilton Parkdale Division,43.260957,-79.782925,Cool Mixed Forest,POINT (-79.782925 43.260957)
ON-MAIN-00855a72,ON-MAIN-00855a72,Sault Ste. Marie Division,46.524326,-84.395602,Cool Mixed Forest,POINT (-84.395602 46.524326)
MB-MAIN-0d5c2cae,MB-MAIN-0d5c2cae,Selkirk Division,50.133771,-96.911166,Cool Mixed Forest,POINT (-96.911166 50.133771)
MB-MAIN-c3d6d0d2,MB-MAIN-c3d6d0d2,General Scrap,49.928603,-97.019187,Cool Mixed Forest,POINT (-97.019187 49.928603)
MB-MAIN-d7217475,MB-MAIN-d7217475,Industrial Metals,49.88847,-97.098232,Cool Mixed Forest,POINT (-97.098232 49.88847)
SK-MAIN-5faf4b42,SK-MAIN-5faf4b42,Wheat City Metals Inc.,50.525046,-104.639712,Steppe,POINT (-104.639712 50.525046)
AB-MAIN-575ff9de,AB-MAIN-575ff9de,GenAlta Recycling Inc.,53.588119,-113.274102,Cold Evergreen Needleleaf Forest,POINT (-113.274102 53.588119)
AB-MAIN-2951d12e,AB-MAIN-2951d12e,Calgary Facility,51.02419,-114.031993,Cold Evergreen Needleleaf Forest,POINT (-114.031993 51.02419)
AB-MAIN-2a44a3b1,AB-MAIN-2a44a3b1,Navajo Metals Inc.,51.001803,-114.032869,Cold Evergreen Needleleaf Forest,POINT (-114.032869 51.001803)
BC-MAIN-ee65d38c,BC-MAIN-ee65d38c,Richmond,49.201528,-123.086842,Temperate Deciduous Broadleaf Forest,POINT (-123.086842 49.201528)
BC-MAIN-1f842681,BC-MAIN-1f842681,Victoria Depot,48.43732,-123.37692,Temperate Deciduous Broadleaf Forest,POINT (-123.37692 48.43732)
QC-MAIN-81a288d0,QC-MAIN-81a288d0,Elysis,48.43214,-71.17565,Cool Mixed Forest,POINT (-71.17565 48.43214)
NL-MAIN-251d6364,NL-MAIN-251d6364,Beaver Brook,48.715909,-55.196,Cool Mixed Forest,POINT (-55.196 48.715909)
QC-MAIN-0414a373,QC-MAIN-0414a373,Lithion St-Bruno,45.533333,-73.349998,Cool Mixed Forest,POINT (-73.349998 45.533333)
ON-MAIN-575c5e66,ON-MAIN-575c5e66,Ontario Spoke,44.233334,-76.5,Cool Mixed Forest,POINT (-76.5 44.233334)
AB-MAIN-ca9625ce,AB-MAIN-ca9625ce,Fortune Minerals Refinery,53.797615,-112.513502,Cold Evergreen Needleleaf Forest,POINT (-112.513502 53.797615)
NT-MAIN-b7cdf82c,NT-MAIN-b7cdf82c,NICO,63.55,-116.74583,Cold Evergreen Needleleaf Forest,POINT (-116.74583 63.55)
ON-MAIN-6664e89b,ON-MAIN-6664e89b,Battery Materials Park,47.40635,-79.62229,Cool Mixed Forest,POINT (-79.62229 47.40635)
QC-MAIN-308f662c,QC-MAIN-308f662c,Corner Bay Complex,49.893,-74.309,Cold Evergreen Needleleaf Forest,POINT (-74.309 49.893)
NL-MAIN-bb23d8a6,NL-MAIN-bb23d8a6,Great Burnt Lake,48.3758,-56.1344,Cool Mixed Forest,POINT (-56.1344 48.3758)
BC-MAIN-f9a2f794,BC-MAIN-f9a2f794,Morrison,55.1944,-126.3158,Cold Evergreen Needleleaf Forest,POINT (-126.3158 55.1944)
BC-MAIN-6fbdcf4c,BC-MAIN-6fbdcf4c,North Island,50.67556,-127.85639,Cool Evergreen Needleleaf Forest,POINT (-127.85639 50.67556)
YT-MAIN-5e0d8b48,YT-MAIN-5e0d8b48,Casino,62.73333,-138.83333,Cold Evergreen Needleleaf Forest,POINT (-138.83333 62.73333)
BC-MAIN-a505d25d,BC-MAIN-a505d25d,Ootsa,53.63333,-127.08333,Cold Evergreen Needleleaf Forest,POINT (-127.08333 53.63333)
BC-MAIN-2ee8b101,BC-MAIN-2ee8b101,Ajax,50.63,-120.46,Cool Evergreen Needleleaf Forest,POINT (-120.46 50.63)
BC-MAIN-b4655afb,BC-MAIN-b4655afb,Galore Creek,57.13,-131.45,Low and High Shrub Tundra,POINT (-131.45 57.13)
BC-MAIN-c720b195,BC-MAIN-c720b195,GJ,57.63,-130.25,Cold Evergreen Needleleaf Forest,POINT (-130.25 57.63)
BC-MAIN-e34feb4d,BC-MAIN-e34feb4d,Kemess,57.05037,-126.77117,Cold Evergreen Needleleaf Forest,POINT (-126.77117 57.05037)
BC-MAIN-265a57f6,BC-MAIN-265a57f6,Kwanika,55.415303,-125.271268,Cold Evergreen Needleleaf Forest,POINT (-125.271268 55.415303)
NL-MAIN-c139de6d,NL-MAIN-c139de6d,Ming,49.915,-56.087,Cool Mixed Forest,POINT (-56.087 49.915)
YT-MAIN-752fbcae,YT-MAIN-752fbcae,Minto,62.618875,-137.23858,Cold Evergreen Needleleaf Forest,POINT (-137.23858 62.618875)
BC-MAIN-18bed6d7,BC-MAIN-18bed6d7,Yellowhead,51.52,-119.817,Cold Evergreen Needleleaf Forest,POINT (-119.817 51.52)
YT-MAIN-956d050a,YT-MAIN-956d050a,Carmacks,62.33,-136.7,Cold Evergreen Needleleaf Forest,POINT (-136.7 62.33)
MB-MAIN-c0684566,MB-MAIN-c0684566,Rail,54.7463,-100.5916,,POINT (-100.5916 54.7463)
BC-MAIN-f5b7a482,BC-MAIN-f5b7a482,Huckleberry,53.67972,-127.17333,Cold Evergreen Needleleaf Forest,POINT (-127.17333 53.67972)
BC-MAIN-c5d1b42d,BC-MAIN-c5d1b42d,Berg,53.802,-127.431,Cool Evergreen Needleleaf Forest,POINT (-127.431 53.802)
BC-MAIN-193ddddb,BC-MAIN-193ddddb,Schaft Creek,57.36667,-131.0,Cold Evergreen Needleleaf Forest,POINT (-131 57.36667)
ON-MAIN-37e9571e,ON-MAIN-37e9571e,Thierry,51.49667,-90.34694,Cold Evergreen Needleleaf Forest,POINT (-90.34694 51.49667)
NU-MAIN-8e62bfbc,NU-MAIN-8e62bfbc,High Lake,67.37556,-110.8436,Low and High Shrub Tundra,POINT (-110.8436 67.37556)
SK-MAIN-7a11ae49,SK-MAIN-7a11ae49,McIlvenna Bay,54.65977,-102.89498,Cold Evergreen Needleleaf Forest,POINT (-102.89498 54.65977)
BC-MAIN-12730593,BC-MAIN-12730593,Kutcho,58.20996,-128.38736,Cold Evergreen Needleleaf Forest,POINT (-128.38736 58.20996)
NL-MAIN-761755cc,NL-MAIN-761755cc,AGS Fluorspar,46.9038,-55.4003,Cool Mixed Forest,POINT (-55.4003 46.9038)
QC-MAIN-f1ff4920,QC-MAIN-f1ff4920,Akasaba West,48.04,-77.58,Cool Mixed Forest,POINT (-77.58 48.04)
BC-MAIN-eba3e309,BC-MAIN-eba3e309,Golden Crown,49.09,-118.59,Cold Evergreen Needleleaf Forest,POINT (-118.59 49.09)
BC-MAIN-4afe1a8e,BC-MAIN-4afe1a8e,New Prosperity,51.46,-123.62,Cold Evergreen Needleleaf Forest,POINT (-123.62 51.46)
ON-MAIN-74997012,ON-MAIN-74997012,Upper Beaver,48.16,-79.76,Cool Mixed Forest,POINT (-79.76 48.16)
QC-MAIN-b2148882,QC-MAIN-b2148882,Troilus,51.01,-74.46,Cold Evergreen Needleleaf Forest,POINT (-74.46 51.01)
BC-MAIN-b7591127,BC-MAIN-b7591127,Iskut,56.66667,-131.0925,Cold Evergreen Needleleaf Forest,POINT (-131.0925 56.66667)
BC-MAIN-4959ea63,BC-MAIN-4959ea63,KSM,56.46666,-130.33556,Low and High Shrub Tundra,POINT (-130.33556 56.46666)
QC-MAIN-9e2f07ca,QC-MAIN-9e2f07ca,Horne 5,48.25425,-79.00953,,POINT (-79.00953 48.25425)
BC-MAIN-116ae608,BC-MAIN-116ae608,Revel Ridge,51.287,-118.121,Cool Evergreen Needleleaf Forest,POINT (-118.121 51.287)
BC-MAIN-51068f3b,BC-MAIN-51068f3b,Kitsault Valley,55.75361,-129.57778,Low and High Shrub Tundra,POINT (-129.57778 55.75361)
BC-MAIN-b1fe389a,BC-MAIN-b1fe389a,Eskay Creek,56.653,-130.43,Low and High Shrub Tundra,POINT (-130.43 56.653)
YT-MAIN-68c87980,YT-MAIN-68c87980,Freegold Mountain,62.3,-137.2,Cold Evergreen Needleleaf Forest,POINT (-137.2 62.3)
MB-MAIN-a832fb0a,MB-MAIN-a832fb0a,East Wekusko - Snow Lake,54.78534,-99.77143,Cold Evergreen Needleleaf Forest,POINT (-99.77143 54.78534)
YT-MAIN-73ce66b5,YT-MAIN-73ce66b5,Klaza,62.14117,-137.3175,Cold Evergreen Needleleaf Forest,POINT (-137.3175 62.14117)
BC-MAIN-efff21d3,BC-MAIN-efff21d3,Deer Horn,53.3607,-127.30826,Cool Evergreen Needleleaf Forest,POINT (-127.30826 53.3607)
MB-MAIN-5d21dbd5,MB-MAIN-5d21dbd5,Monument Bay,54.446415,-92.914016,,POINT (-92.914016 54.446415)
YT-MAIN-c3105f43,YT-MAIN-c3105f43,Rackla Gold,64.19667,-134.41278,Low and High Shrub Tundra,POINT (-134.41278 64.19667)
MB-MAIN-e2e67f8f,MB-MAIN-e2e67f8f,1901,54.8557,-100.134,Cold Evergreen Needleleaf Forest,POINT (-100.134 54.8557)
MB-MAIN-14cb4097,MB-MAIN-14cb4097,Chisel North,54.8432,-100.1111,Cold Evergreen Needleleaf Forest,POINT (-100.1111 54.8432)
MB-MAIN-854abe09,MB-MAIN-854abe09,Talbot,54.1133,-99.6343,Cold Evergreen Needleleaf Forest,POINT (-99.6343 54.1133)
MB-MAIN-1a82a1b7,MB-MAIN-1a82a1b7,Tower,53.9623,-99.2284,Cold Evergreen Needleleaf Forest,POINT (-99.2284 53.9623)
MB-MAIN-b5b81ee3,MB-MAIN-b5b81ee3,Wim,55.02136,-100.05248,Cold Evergreen Needleleaf Forest,POINT (-100.05248 55.02136)
ON-MAIN-8305a644,ON-MAIN-8305a644,Albany,50.0293,-84.45181,Cool Mixed Forest,POINT (-84.45181 50.0293)
ON-MAIN-8b86d975,ON-MAIN-8b86d975,Bissett Creek,46.11814,-78.05992,Cool Mixed Forest,POINT (-78.05992 46.11814)
QC-MAIN-a2c6775d,QC-MAIN-a2c6775d,La Loutre,46.03656,-74.99714,Cool Mixed Forest,POINT (-74.99714 46.03656)
QC-MAIN-615ebdb4,QC-MAIN-615ebdb4,Lac Guéret (Uatnan),51.14,-69.1,Cold Evergreen Needleleaf Forest,POINT (-69.1 51.14)
QC-MAIN-237d67c1,QC-MAIN-237d67c1,Lac Rainy Graphite,52.60511,-67.07597,Cold Evergreen Needleleaf Forest,POINT (-67.07597 52.60511)
ON-MAIN-1f9f196a,ON-MAIN-1f9f196a,Kearney,45.72635,-79.07927,Cool Mixed Forest,POINT (-79.07927 45.72635)
QC-MAIN-d6748d40,QC-MAIN-d6748d40,Matawinie,46.61728,-73.9212,,POINT (-73.9212 46.61728)
QC-MAIN-ae473a4e,QC-MAIN-ae473a4e,Lac Knife,52.54974,-67.18179,Cold Evergreen Needleleaf Forest,POINT (-67.18179 52.54974)
QC-MAIN-2373e83a,QC-MAIN-2373e83a,Miller,45.66498,-74.60994,Cool Mixed Forest,POINT (-74.60994 45.66498)
AB-MAIN-7430be9d,AB-MAIN-7430be9d,Steveville,50.7136,-111.860024,Temperate Evergreen Needleleaf Open Woodland,POINT (-111.860024 50.7136)
AB-MAIN-4eee18d1,AB-MAIN-4eee18d1,Worsley,56.507923,-119.1341,Cold Evergreen Needleleaf Forest,POINT (-119.1341 56.507923)
QC-MAIN-0d2aad39,QC-MAIN-0d2aad39,Lac la Blache,50.058,-69.642,Cold Evergreen Needleleaf Forest,POINT (-69.642 50.058)
QC-MAIN-be473617,QC-MAIN-be473617,Mont Sorcier,49.918163,-74.127578,Cold Evergreen Needleleaf Forest,POINT (-74.127578 49.918163)
QC-MAIN-b5937543,QC-MAIN-b5937543,Blackrock,49.800453,-74.062113,Cold Evergreen Needleleaf Forest,POINT (-74.062113 49.800453)
QC-MAIN-64595b02,QC-MAIN-64595b02,Blackrock Pyrometallurgical Facility,48.399648,-70.854841,Cool Mixed Forest,POINT (-70.854841 48.399648)
QC-MAIN-860bbbfc,QC-MAIN-860bbbfc,Lac Doré Vanadium,49.84573,-73.95682,Cold Evergreen Needleleaf Forest,POINT (-73.95682 49.84573)
QC-MAIN-11c40b1f,QC-MAIN-11c40b1f,Lithium Demonstration Plant,46.043727,-73.139626,Cool Mixed Forest,POINT (-73.139626 46.043727)
AB-MAIN-7d4a0421,AB-MAIN-7d4a0421,Bashaw District,51.77696,-113.93655,Cold Evergreen Needleleaf Forest,POINT (-113.93655 51.77696)
AB-MAIN-35d0dc71,AB-MAIN-35d0dc71,Boardwalk,54.946792,-117.163427,Cold Evergreen Needleleaf Forest,POINT (-117.163427 54.946792)
SK-MAIN-fbe28fef,SK-MAIN-fbe28fef,Kindersley Lithium,51.73894139,-109.19120556,Steppe,POINT (-109.19120556 51.73894139)
SK-MAIN-de2e2f8e,SK-MAIN-de2e2f8e,Prairie Lithium,49.21363,-103.63518,Steppe,POINT (-103.63518 49.21363)
AB-MAIN-63f096a6,AB-MAIN-63f096a6,Rainbow Lake,58.50664,-119.30174,Cold Evergreen Needleleaf Forest,POINT (-119.30174 58.50664)
QC-MAIN-1186a6d0,QC-MAIN-1186a6d0,Authier,48.36207,-78.19557,Cool Mixed Forest,POINT (-78.19557 48.36207)
ON-MAIN-eda110b0,ON-MAIN-eda110b0,Georgia Lake,49.45236,-88.00298,Cool Mixed Forest,POINT (-88.00298 49.45236)
QC-MAIN-8c7063b2,QC-MAIN-8c7063b2,James Bay Lithium,52.23333,-77.06667,Cool Mixed Forest,POINT (-77.06667 52.23333)
QC-MAIN-c4fb59c2,QC-MAIN-c4fb59c2,Moblan,50.73176,-74.91215,Cold Evergreen Needleleaf Forest,POINT (-74.91215 50.73176)
ON-MAIN-46f71d5b,ON-MAIN-46f71d5b,Separation Rapids,50.266,-94.58258,Cool Mixed Forest,POINT (-94.58258 50.266)
ON-MAIN-97ee890f,ON-MAIN-97ee890f,Seymour Lake,50.40987,-88.4491,Cool Mixed Forest,POINT (-88.4491 50.40987)
QC-MAIN-9d41d417,QC-MAIN-9d41d417,Whabouchi,51.67972,-75.85333,Cool Mixed Forest,POINT (-75.85333 51.67972)
QC-MAIN-d4e2812a,QC-MAIN-d4e2812a,Rose,52.022485,-76.172,Cold Evergreen Needleleaf Forest,POINT (-76.172 52.022485)
ON-MAIN-c06904f0,ON-MAIN-c06904f0,Pakeagama,52.60026,-93.37727,Cold Evergreen Needleleaf Forest,POINT (-93.37727 52.60026)
QC-MAIN-eb73fd68,QC-MAIN-eb73fd68,Nemaska lithium conversion facility,46.333332,-72.433334,Cool Mixed Forest,POINT (-72.433334 46.333332)
ON-MAIN-6b998583,ON-MAIN-6b998583,Markham lithium reprocessing facility,43.8331,-79.3415,Cool Mixed Forest,POINT (-79.3415 43.8331)
QC-MAIN-d59f82aa,QC-MAIN-d59f82aa,Sirmac,50.62225,-75.47624,Cool Mixed Forest,POINT (-75.47624 50.62225)
QC-MAIN-d648a81a,QC-MAIN-d648a81a,Alliance Magnesium,45.760379,-72.002255,Cool Mixed Forest,POINT (-72.002255 45.760379)
BC-MAIN-c7247100,BC-MAIN-c7247100,Driftwood Creek,50.904,-116.575,Cold Evergreen Needleleaf Forest,POINT (-116.575 50.904)
BC-MAIN-feb13c30,BC-MAIN-feb13c30,Record Ridge,49.082,-117.884,Cool Evergreen Needleleaf Forest,POINT (-117.884 49.082)
NL-MAIN-18695c6d,NL-MAIN-18695c6d,Scully Mine - Manganese project,52.91806,-66.91222,Cold Evergreen Needleleaf Forest,POINT (-66.91222 52.91806)
QC-MAIN-2cf66e65,QC-MAIN-2cf66e65,Becancour Plant,46.333332,-72.433334,Cool Mixed Forest,POINT (-72.433334 46.333332)
NB-MAIN-c1e4dee0,NB-MAIN-c1e4dee0,Battery Hill,46.22531,-67.62547,Cool Mixed Forest,POINT (-67.62547 46.22531)
NB-MAIN-3e7d42ac,NB-MAIN-3e7d42ac,Woodstock,46.18,-67.64,Cool Mixed Forest,POINT (-67.64 46.18)
BC-MAIN-b9636ef1,BC-MAIN-b9636ef1,Endako,54.04417,-125.13278,Cold Evergreen Needleleaf Forest,POINT (-125.13278 54.04417)
BC-MAIN-ff8c8ef7,BC-MAIN-ff8c8ef7,Lone Pine,54.516548,-126.73296,Cold Evergreen Needleleaf Forest,POINT (-126.73296 54.516548)
BC-MAIN-3ef4f421,BC-MAIN-3ef4f421,Avanti Kitsault,55.422,-129.419,Cool Evergreen Needleleaf Forest,POINT (-129.419 55.422)
BC-MAIN-5ef2b8a6,BC-MAIN-5ef2b8a6,Davidson,54.82,-127.29861,Cool Evergreen Needleleaf Forest,POINT (-127.29861 54.82)
MB-MAIN-f7fde5b4,MB-MAIN-f7fde5b4,Minago,54.1092,-99.21912,Cold Evergreen Needleleaf Forest,POINT (-99.21912 54.1092)
BC-MAIN-e1641dfb,BC-MAIN-e1641dfb,Decar,54.894513,-125.359691,Cold Evergreen Needleleaf Forest,POINT (-125.359691 54.894513)
BC-MAIN-b031959a,BC-MAIN-b031959a,Turnagain,58.47856,-128.86282,Cold Evergreen Needleleaf Forest,POINT (-128.86282 58.47856)
QC-MAIN-aa793d35,QC-MAIN-aa793d35,Dumont Nickel,48.64667,-78.4425,Cool Mixed Forest,POINT (-78.4425 48.64667)
MB-MAIN-17ea6577,MB-MAIN-17ea6577,Bucko Lake,54.8797,-98.6558,,POINT (-98.6558 54.8797)
QC-MAIN-15c9743f,QC-MAIN-15c9743f,Lac Rocher,50.58331,-76.34166,Cool Mixed Forest,POINT (-76.34166 50.58331)
ON-MAIN-69f03a02,ON-MAIN-69f03a02,Redstone,48.31667,-81.16472,Cool Mixed Forest,POINT (-81.16472 48.31667)
ON-MAIN-1aa10efa,ON-MAIN-1aa10efa,Kenbridge,49.48357,-93.6347,Cool Mixed Forest,POINT (-93.6347 49.48357)
MB-MAIN-6fca9d6d,MB-MAIN-6fca9d6d,Lynn Lake,56.85217,-101.03486,Cold Evergreen Needleleaf Forest,POINT (-101.03486 56.85217)
ON-MAIN-b1d981ca,ON-MAIN-b1d981ca,Crean Hill,46.42472,-81.36167,Cool Mixed Forest,POINT (-81.36167 46.42472)
ON-MAIN-319e04a8,ON-MAIN-319e04a8,Onaping Depth,46.632019,-81.383878,Cool Mixed Forest,POINT (-81.383878 46.632019)
ON-MAIN-9a34108c,ON-MAIN-9a34108c,Victoria,46.41667,-81.38333,Cool Mixed Forest,POINT (-81.38333 46.41667)
ON-MAIN-12c68d49,ON-MAIN-12c68d49,Eagle's Nest,52.74202,-86.3038,Cool Mixed Forest,POINT (-86.3038 52.74202)
MB-MAIN-27a90834,MB-MAIN-27a90834,Makwa Mayville,50.6298,-95.60953,Cool Mixed Forest,POINT (-95.60953 50.6298)
NU-MAIN-eae1621e,NU-MAIN-eae1621e,Ferguson Lake,62.87306,-96.83306,Cold Evergreen Needleleaf Forest,POINT (-96.83306 62.87306)
ON-MAIN-54b7e152,ON-MAIN-54b7e152,Shakespeare,46.33417,-81.85944,Cool Mixed Forest,POINT (-81.85944 46.33417)
YT-MAIN-1910d1c3,YT-MAIN-1910d1c3,Nickel Shaw,61.46667,-139.53333,Cold Evergreen Needleleaf Forest,POINT (-139.53333 61.46667)
ON-MAIN-4c5c1179,ON-MAIN-4c5c1179,Crawford,48.83972,-81.37309,Cool Mixed Forest,POINT (-81.37309 48.83972)
BC-MAIN-23f67ea8,BC-MAIN-23f67ea8,Aley,56.4471,-123.77829,Cold Evergreen Needleleaf Forest,POINT (-123.77829 56.4471)
ON-MAIN-284eafd8,ON-MAIN-284eafd8,James Bay (Argor),50.83912,-80.63075,Cool Mixed Forest,POINT (-80.63075 50.83912)
QC-MAIN-288718a6,QC-MAIN-288718a6,Crevier,49.46003,-72.7644,Cool Mixed Forest,POINT (-72.7644 49.46003)
ON-MAIN-64bbe7e6,ON-MAIN-64bbe7e6,Marathon,48.78758,-86.3263,Cool Mixed Forest,POINT (-86.3263 48.78758)
ON-MAIN-2bb07cd3,ON-MAIN-2bb07cd3,River Valley,46.70591,-80.27606,Cool Mixed Forest,POINT (-80.27606 46.70591)
ON-MAIN-d47616e5,ON-MAIN-d47616e5,Martison,50.314444,-83.414444,Cool Mixed Forest,POINT (-83.414444 50.314444)
ON-MAIN-be399420,ON-MAIN-be399420,Thunder Bay North,48.79,-88.931,Cool Mixed Forest,POINT (-88.931 48.79)
SK-MAIN-f79436ec,SK-MAIN-f79436ec,Jansen,51.8991,-104.71415,Cold Evergreen Needleleaf Forest,POINT (-104.71415 51.8991)
SK-MAIN-71ad0a66,SK-MAIN-71ad0a66,Milestone,50.236669,-104.239825,Steppe,POINT (-104.239825 50.236669)
NB-MAIN-e55cb3d1,NB-MAIN-e55cb3d1,Millstream,45.705,-65.63,Cool Mixed Forest,POINT (-65.63 45.705)
SK-MAIN-8daee686,SK-MAIN-8daee686,Muskowekwan,51.33382,-104.01827,Cold Evergreen Needleleaf Forest,POINT (-104.01827 51.33382)
MB-MAIN-3ab82795,MB-MAIN-3ab82795,PADCOM Potash Mine,50.735345,-101.483097,Steppe,POINT (-101.483097 50.735345)
SK-MAIN-bae48393,SK-MAIN-bae48393,Southey,51.11466,-104.65979,Steppe,POINT (-104.65979 51.11466)
SK-MAIN-f2a5edd8,SK-MAIN-f2a5edd8,Vanguard,50.84335,-106.21347,Steppe,POINT (-106.21347 50.84335)
SK-MAIN-017a6137,SK-MAIN-017a6137,Wynyard,51.69246,-103.931327,Cold Evergreen Needleleaf Forest,POINT (-103.931327 51.69246)
QC-MAIN-71fdfc8a,QC-MAIN-71fdfc8a,Kipawa (Zeus),46.81747,-78.4745,Cool Mixed Forest,POINT (-78.4745 46.81747)
QC-MAIN-3330383b,QC-MAIN-3330383b,Eldor (Ashram),56.94583,-68.40417,Cold Evergreen Needleleaf Forest,POINT (-68.40417 56.94583)
NT-MAIN-b1b28b01,NT-MAIN-b1b28b01,Nechalacho - T-Zone & Tardiff Zone,62.11806,-112.59972,Cold Evergreen Needleleaf Forest,POINT (-112.59972 62.11806)
NL-MAIN-6132ffae,NL-MAIN-6132ffae,Port Hope Simpson (Foxtrot),52.39833,-55.82417,Cold Evergreen Needleleaf Forest,POINT (-55.82417 52.39833)
SK-MAIN-d5c9124e,SK-MAIN-d5c9124e,Rare Earth Processing Facility,52.1400327,-106.62737,Steppe,POINT (-106.62737 52.1400327)
ON-MAIN-4a6187a4,ON-MAIN-4a6187a4,RapidSX Demonstration Plant,44.233334,-76.5,Cool Mixed Forest,POINT (-76.5 44.233334)
QC-MAIN-22426144,QC-MAIN-22426144,REE Recycling Facility (Saint-Bruno),45.525976,-73.340812,Cool Mixed Forest,POINT (-73.340812 45.525976)
SK-MAIN-a8525ef7,SK-MAIN-a8525ef7,Rare Earth Processing Facility,52.176809,-106.656706,Steppe,POINT (-106.656706 52.176809)
QC-MAIN-64ae8000,QC-MAIN-64ae8000,Saint-Honoré,48.54277,-71.15445,Cool Mixed Forest,POINT (-71.15445 48.54277)
BC-MAIN-382acb18,BC-MAIN-382acb18,Wicheeda,54.53141,-122.09912,Cold Evergreen Needleleaf Forest,POINT (-122.09912 54.53141)
QC-MAIN-2587e541,QC-MAIN-2587e541,Strange Lake,56.35,-64.2,Cold Evergreen Needleleaf Forest,POINT (-64.2 56.35)
NT-MAIN-4f11f183,NT-MAIN-4f11f183,Nechalacho - Basal Zone,62.11806,-112.59972,Cold Evergreen Needleleaf Forest,POINT (-112.59972 62.11806)
QC-MAIN-1d2f31f9,QC-MAIN-1d2f31f9,Kwyjibo,51.04975,-65.26564,Cold Evergreen Needleleaf Forest,POINT (-65.26564 51.04975)
QC-MAIN-7b3b4c8b,QC-MAIN-7b3b4c8b,Scandium Demonstration Plant,46.043727,-73.139626,Cool Mixed Forest,POINT (-73.139626 46.043727)
QC-MAIN-586679b9,QC-MAIN-586679b9,Crater Lake,55.35025,-63.8991,Cold Evergreen Needleleaf Forest,POINT (-63.8991 55.35025)
BC-MAIN-89d98fb5,BC-MAIN-89d98fb5,Blue River,52.30233,-119.15624,Cold Evergreen Needleleaf Forest,POINT (-119.15624 52.30233)
NS-MAIN-3d4837dd,NS-MAIN-3d4837dd,East Kemptville,44.10091,-65.68645,Cool Mixed Forest,POINT (-65.68645 44.10091)
NB-MAIN-b568313c,NB-MAIN-b568313c,Mount Pleasant,45.44167,-66.82,Cool Mixed Forest,POINT (-66.82 45.44167)
NT-MAIN-2336f39f,NT-MAIN-2336f39f,Cantung,61.96728,-128.22812,Low and High Shrub Tundra,POINT (-128.22812 61.96728)
YT-MAIN-70d629b4,YT-MAIN-70d629b4,Mactung,63.2822222222,-130.1525,Low and High Shrub Tundra,POINT (-130.1525 63.2822222222)
YT-MAIN-bf3d71a3,YT-MAIN-bf3d71a3,Northern Dancer,60.0052777778,-131.597777778,Cold Evergreen Needleleaf Forest,POINT (-131.597777778 60.0052777778)
NB-MAIN-f58cc895,NB-MAIN-f58cc895,Sisson,46.365,-67.045,Cool Mixed Forest,POINT (-67.045 46.365)
SK-MAIN-7a8f78f5,SK-MAIN-7a8f78f5,Eagle Point,58.28918,-103.60839,,POINT (-103.60839 58.28918)
SK-MAIN-9dd2b7f8,SK-MAIN-9dd2b7f8,Horseshoe-Raven,58.15333,-103.73639,Cold Evergreen Needleleaf Forest,POINT (-103.73639 58.15333)
NU-MAIN-fefca98a,NU-MAIN-fefca98a,Kiggavik-Sissons,64.385,-97.725,Low and High Shrub Tundra,POINT (-97.725 64.385)
NL-MAIN-a498ddc6,NL-MAIN-a498ddc6,Michelin,54.584,-59.984,Cold Evergreen Needleleaf Forest,POINT (-59.984 54.584)
SK-MAIN-d05d73fc,SK-MAIN-d05d73fc,Midwest,58.30535,-104.08859,Cold Evergreen Needleleaf Forest,POINT (-104.08859 58.30535)
SK-MAIN-08e50fe2,SK-MAIN-08e50fe2,Millennium,57.52045,-105.63442,Cold Evergreen Needleleaf Forest,POINT (-105.63442 57.52045)
SK-MAIN-226bfea9,SK-MAIN-226bfea9,Rabbit Lake,58.19892,-103.71697,Cold Evergreen Needleleaf Forest,POINT (-103.71697 58.19892)
SK-MAIN-0684a5d8,SK-MAIN-0684a5d8,Patterson Lake South,57.639,-109.364,Cold Evergreen Needleleaf Forest,POINT (-109.364 57.639)
SK-MAIN-3012889c,SK-MAIN-3012889c,Rook I,57.59144,-108.9925,Cold Evergreen Needleleaf Forest,POINT (-108.9925 57.59144)
SK-MAIN-4aef3cb2,SK-MAIN-4aef3cb2,Waterbury,58.3478,-104.03032,Cold Evergreen Needleleaf Forest,POINT (-104.03032 58.3478)
SK-MAIN-95ec2625,SK-MAIN-95ec2625,Wheeler River,57.50888,-105.38137,Cold Evergreen Needleleaf Forest,POINT (-105.38137 57.50888)
AB-MAIN-9a0307f6,AB-MAIN-9a0307f6,SBH Black Shale,57.68711,-111.90375,Cold Evergreen Needleleaf Forest,POINT (-111.90375 57.68711)
QC-MAIN-abe98331,QC-MAIN-abe98331,Scott Lake,49.86103,-74.67023,Cool Evergreen Needleleaf Forest,POINT (-74.67023 49.86103)
ON-MAIN-3c468faa,ON-MAIN-3c468faa,Superior Lake,48.9775,-87.38361,Cool Mixed Forest,POINT (-87.38361 48.9775)
YT-MAIN-97902468,YT-MAIN-97902468,Marg,64.01187,-134.43958,Low and High Shrub Tundra,POINT (-134.43958 64.01187)
QC-MAIN-69bb36c1,QC-MAIN-69bb36c1,Caber Complex,49.773163,-77.936644,Cool Evergreen Needleleaf Forest,POINT (-77.936644 49.773163)
BC-MAIN-23155c25,BC-MAIN-23155c25,Myra Falls,49.57,-125.59,Cool Evergreen Needleleaf Forest,POINT (-125.59 49.57)
NU-MAIN-1ef8af2c,NU-MAIN-1ef8af2c,Izok Lake,65.63056,-112.79889,Low and High Shrub Tundra,POINT (-112.79889 65.63056)
NT-MAIN-b99d4cb2,NT-MAIN-b99d4cb2,Pine Point,60.87216,-114.38652,Cold Evergreen Needleleaf Forest,POINT (-114.38652 60.87216)
YT-MAIN-03a159d7,YT-MAIN-03a159d7,Selwyn,62.45542,-129.20011,Low and High Shrub Tundra,POINT (-129.20011 62.45542)
YT-MAIN-a70ed33c,YT-MAIN-a70ed33c,Yukon Base Metal,62.902,-132.198,Cold Evergreen Needleleaf Forest,POINT (-132.198 62.902)
NL-MAIN-895cb178,NL-MAIN-895cb178,Buchans River,48.829018,-56.855965,Cool Mixed Forest,POINT (-56.855965 48.829018)
NU-MAIN-90d05e30,NU-MAIN-90d05e30,Hackett River,65.91667,-108.36306,Low and High Shrub Tundra,POINT (-108.36306 65.91667)
YT-MAIN-2cc9bb06,YT-MAIN-2cc9bb06,Kudz Ze Kayah,61.47108,-130.59894,Cold Evergreen Needleleaf Forest,POINT (-130.59894 61.47108)
QC-MAIN-77228f68,QC-MAIN-77228f68,Langlois,49.24564,-76.67358,Cool Mixed Forest,POINT (-76.67358 49.24564)
NS-MAIN-12854e96,NS-MAIN-12854e96,Scotia,45.03248,-63.34479,Cool Mixed Forest,POINT (-63.34479 45.03248)
BC-MAIN-891d3cb5,BC-MAIN-891d3cb5,Akie,57.38088,-124.86599,Cold Evergreen Needleleaf Forest,POINT (-124.86599 57.38088)
YT-MAIN-ca488f19,YT-MAIN-ca488f19,Macmillan Pass,63.16057,-130.15143,Low and High Shrub Tundra,POINT (-130.15143 63.16057)
NB-MAIN-0c5b40d8,NB-MAIN-0c5b40d8,Nash Creek,47.88939,-66.09771,Cool Mixed Forest,POINT (-66.09771 47.88939)
NT-MAIN-b3681e03,NT-MAIN-b3681e03,Prairie Creek,61.55713,-124.79938,Cold Evergreen Needleleaf Forest,POINT (-124.79938 61.55713)
NB-MAIN-686879f7,NB-MAIN-686879f7,Caribou,47.56418,-66.29013,Cool Mixed Forest,POINT (-66.29013 47.56418)
NB-MAIN-ba6ac768,NB-MAIN-ba6ac768,Halfmile,47.30317,-66.3225,Cool Mixed Forest,POINT (-66.3225 47.30317)
NB-MAIN-8e04eb21,NB-MAIN-8e04eb21,Murray Brook,47.52528,-66.43167,Cool Mixed Forest,POINT (-66.43167 47.52528)
NB-MAIN-1041e3d3,NB-MAIN-1041e3d3,Stratmat,47.30417,-66.3125,Cool Mixed Forest,POINT (-66.3125 47.30417)
QC-MAIN-5801b453,QC-MAIN-5801b453,Abcourt-Barvue,48.52154,-77.67901,,POINT (-77.67901 48.52154)
QC-MAIN-715d4318,QC-MAIN-715d4318,Horizon,45.57462,-73.450825,Cool Mixed Forest,POINT (-73.450825 45.57462)
